{"type":"FeatureCollection","features":[{"type":"Feature","id":0,"geometry":{"type":"Point","coordinates":[116.33133259900001,39.90614518600006]},"properties":{"FID":0,"stationid":1,"stationnam":"MUXIDI","count":598800,"站点中":"木樨地","刷卡排":142,"lineids":"{1}","linenames":"{地铁1号线八通线}","lat":39.906145186000003,"lng":116.33133259900001,"OBJECTID":1,"北京市2":1,"X":116.33133259900001,"Y":39.906145186000003,"LongNTL_20":49.145000457763672}},{"type":"Feature","id":1,"geometry":{"type":"Point","coordinates":[116.18445419,39.906153156000073]},"properties":{"FID":1,"stationid":2,"stationnam":"GUCHENG","count":653457,"站点中":"古城","刷卡排":117,"lineids":"{1}","linenames":"{地铁1号线八通线}","lat":39.906153156099997,"lng":116.18445419,"OBJECTID":2,"北京市2":2,"X":116.18445419,"Y":39.906153156000002,"LongNTL_20":35.365001678466797}},{"type":"Feature","id":2,"geometry":{"type":"Point","coordinates":[116.39529636700001,39.906333422000046]},"properties":{"FID":2,"stationid":3,"stationnam":"TIAN'ANMENDONG","count":459286,"站点中":"天安门东","刷卡排":184,"lineids":"{1}","linenames":"{地铁1号线八通线}","lat":39.906333422400003,"lng":116.395296367,"OBJECTID":3,"北京市2":3,"X":116.395296367,"Y":39.906333422000003,"LongNTL_20":109.80000305175781}},{"type":"Feature","id":3,"geometry":{"type":"Point","coordinates":[116.38541029100008,39.906061685000054]},"properties":{"FID":3,"stationid":4,"stationnam":"TIAN'ANMENXI","count":258279,"站点中":"天安门西","刷卡排":249,"lineids":"{1}","linenames":"{地铁1号线八通线}","lat":39.906061685499999,"lng":116.385410291,"OBJECTID":4,"北京市2":4,"X":116.385410291,"Y":39.906061684999997,"LongNTL_20":89.349998474121094}},{"type":"Feature","id":4,"geometry":{"type":"Point","coordinates":[116.44431215500003,39.907179954000071]},"properties":{"FID":4,"stationid":5,"stationnam":"YONG'ANLI","count":907009,"站点中":"永安里","刷卡排":63,"lineids":"{1}","linenames":"{地铁1号线八通线}","lat":39.9071799536,"lng":116.44431215500001,"OBJECTID":5,"北京市2":5,"X":116.44431215500001,"Y":39.907179954,"LongNTL_20":59.909999847412109}},{"type":"Feature","id":5,"geometry":{"type":"Point","coordinates":[116.28891176400009,39.906213802000082]},"properties":{"FID":5,"stationid":6,"stationnam":"WANSHOU LU","count":599139,"站点中":"万寿路","刷卡排":141,"lineids":"{1}","linenames":"{地铁1号线八通线}","lat":39.9062138022,"lng":116.28891176400001,"OBJECTID":6,"北京市2":6,"X":116.28891176400001,"Y":39.906213802000003,"LongNTL_20":33.509998321533203}},{"type":"Feature","id":6,"geometry":{"type":"Point","coordinates":[116.20671712800004,39.906163244000084]},"properties":{"FID":6,"stationid":7,"stationnam":"BAJIAO YOULEYUAN","count":726524,"站点中":"八角游乐园","刷卡排":101,"lineids":"{1}","linenames":"{地铁1号线八通线}","lat":39.906163243800002,"lng":116.20671712799999,"OBJECTID":7,"北京市2":7,"X":116.20671712799999,"Y":39.906163243999998,"LongNTL_20":45.104999542236328}},{"type":"Feature","id":7,"geometry":{"type":"Point","coordinates":[116.22978798100007,39.906204943000034]},"properties":{"FID":7,"stationid":8,"stationnam":"BABAOSHAN","count":879347,"站点中":"八宝山","刷卡排":69,"lineids":"{1}","linenames":"{地铁1号线八通线}","lat":39.906204943399999,"lng":116.229787981,"OBJECTID":8,"北京市2":8,"X":116.229787981,"Y":39.906204942999999,"LongNTL_20":43.724998474121094}},{"type":"Feature","id":8,"geometry":{"type":"Point","coordinates":[116.24697200500009,39.906233473000043]},"properties":{"FID":8,"stationid":9,"stationnam":"YUQUAN LU","count":851467,"站点中":"玉泉路","刷卡排":71,"lineids":"{1}","linenames":"{地铁1号线八通线}","lat":39.906233473199997,"lng":116.246972005,"OBJECTID":9,"北京市2":9,"X":116.246972005,"Y":39.906233473,"LongNTL_20":32.935001373291016}},{"type":"Feature","id":9,"geometry":{"type":"Point","coordinates":[116.40526077100003,39.907380771000078]},"properties":{"FID":9,"stationid":10,"stationnam":"WANGFUJING","count":1089626,"站点中":"王府井","刷卡排":35,"lineids":"{1,7}","linenames":"{地铁1号线八通线,地铁8号线}","lat":39.907380770700001,"lng":116.405260771,"OBJECTID":10,"北京市2":10,"X":116.405260771,"Y":39.907380771,"LongNTL_20":87.944999694824219}},{"type":"Feature","id":10,"geometry":{"type":"Point","coordinates":[116.17249076000007,39.92457078700005]},"properties":{"FID":10,"stationid":11,"stationnam":"PINGGUOYUAN","count":795913,"站点中":"苹果园","刷卡排":87,"lineids":"{5}","linenames":"{地铁6号线}","lat":39.924570787299999,"lng":116.17249076,"OBJECTID":11,"北京市2":11,"X":116.17249076,"Y":39.924570787,"LongNTL_20":36.130001068115234}},{"type":"Feature","id":11,"geometry":{"type":"Point","coordinates":[116.34640127200009,39.905899654000052]},"properties":{"FID":11,"stationid":12,"stationnam":"NANLISHI LU","count":724650,"站点中":"南礼士路","刷卡排":102,"lineids":"{1}","linenames":"{地铁1号线八通线}","lat":39.905899653900001,"lng":116.34640127199999,"OBJECTID":12,"北京市2":12,"X":116.34640127199999,"Y":39.905899654000002,"LongNTL_20":53}},{"type":"Feature","id":12,"geometry":{"type":"Point","coordinates":[116.268245417,39.906276756000068]},"properties":{"FID":12,"stationid":13,"stationnam":"WUKESONG","count":1219036,"站点中":"五棵松","刷卡排":25,"lineids":"{1}","linenames":"{地铁1号线八通线}","lat":39.906276756300002,"lng":116.268245417,"OBJECTID":13,"北京市2":13,"X":116.268245417,"Y":39.906276755999997,"LongNTL_20":41.770000457763672}},{"type":"Feature","id":13,"geometry":{"type":"Point","coordinates":[116.35099547100003,39.90587914300005]},"properties":{"FID":13,"stationid":14,"stationnam":"FUXINGMEN","count":1028385,"站点中":"复兴门","刷卡排":42,"lineids":"{1,2}","linenames":"{地铁1号线八通线,地铁2号线}","lat":39.905879142800003,"lng":116.350995471,"OBJECTID":14,"北京市2":14,"X":116.350995471,"Y":39.905879143,"LongNTL_20":64.05999755859375}},{"type":"Feature","id":14,"geometry":{"type":"Point","coordinates":[116.42921360800005,39.907226148000063]},"properties":{"FID":14,"stationid":15,"stationnam":"JIANGUOMEN","count":917312,"站点中":"建国门","刷卡排":61,"lineids":"{1,2}","linenames":"{地铁1号线八通线,地铁2号线}","lat":39.907226147999999,"lng":116.429213608,"OBJECTID":15,"北京市2":15,"X":116.429213608,"Y":39.907226147999999,"LongNTL_20":67.029998779296875}},{"type":"Feature","id":15,"geometry":{"type":"Point","coordinates":[116.36921878400005,39.905843139000069]},"properties":{"FID":15,"stationid":16,"stationnam":"XIDAN","count":2001142,"站点中":"西单","刷卡排":8,"lineids":"{1,3}","linenames":"{地铁1号线八通线,地铁4号线大兴线}","lat":39.905843138599998,"lng":116.369218784,"OBJECTID":16,"北京市2":16,"X":116.369218784,"Y":39.905843138999998,"LongNTL_20":82.629997253417969}},{"type":"Feature","id":16,"geometry":{"type":"Point","coordinates":[116.41271306600004,39.906915591000086]},"properties":{"FID":16,"stationid":17,"stationnam":"DONGDAN","count":1095725,"站点中":"东单","刷卡排":34,"lineids":"{1,4}","linenames":"{地铁1号线八通线,地铁5号线}","lat":39.906915590799997,"lng":116.41271306599999,"OBJECTID":17,"北京市2":17,"X":116.41271306599999,"Y":39.906915591000001,"LongNTL_20":66.680000305175781}},{"type":"Feature","id":17,"geometry":{"type":"Point","coordinates":[116.31662186100004,39.90626108500004]},"properties":{"FID":17,"stationid":18,"stationnam":"MILITARY MUSEUM","count":740366,"站点中":"军事博物馆","刷卡排":98,"lineids":"{1,8}","linenames":"{地铁1号线八通线,地铁9号线}","lat":39.906261084500002,"lng":116.316621861,"OBJECTID":18,"北京市2":18,"X":116.316621861,"Y":39.906261084999997,"LongNTL_20":50.174999237060547}},{"type":"Feature","id":18,"geometry":{"type":"Point","coordinates":[116.45456953100006,39.907457966000038]},"properties":{"FID":18,"stationid":19,"stationnam":"GUOMAO","count":2321174,"站点中":"国贸","刷卡排":4,"lineids":"{1,9}","linenames":"{地铁1号线八通线,地铁10号线}","lat":39.907457966300001,"lng":116.454569531,"OBJECTID":19,"北京市2":19,"X":116.454569531,"Y":39.907457966000003,"LongNTL_20":86.019996643066406}},{"type":"Feature","id":19,"geometry":{"type":"Point","coordinates":[116.30415756600007,39.906430028000045]},"properties":{"FID":19,"stationid":20,"stationnam":"GONGZHUFEN","count":574370,"站点中":"公主坟","刷卡排":146,"lineids":"{1,9}","linenames":"{地铁1号线八通线,地铁10号线}","lat":39.906430028199999,"lng":116.304157566,"OBJECTID":20,"北京市2":20,"X":116.304157566,"Y":39.906430028000003,"LongNTL_20":61.310001373291016}},{"type":"Feature","id":20,"geometry":{"type":"Point","coordinates":[116.47089554800004,39.907548297000062]},"properties":{"FID":20,"stationid":21,"stationnam":"DAWANG LU","count":2221519,"站点中":"大望路","刷卡排":5,"lineids":"{1,12}","linenames":"{地铁1号线八通线,地铁14号线}","lat":39.9075482967,"lng":116.470895548,"OBJECTID":21,"北京市2":21,"X":116.470895548,"Y":39.907548296999998,"LongNTL_20":53.125}},{"type":"Feature","id":21,"geometry":{"type":"Point","coordinates":[116.50963253700002,39.907325952000065]},"properties":{"FID":21,"stationid":22,"stationnam":"SIHUIDONG","count":1010797,"站点中":"四惠东","刷卡排":45,"lineids":"{1}","linenames":"{地铁1号线八通线}","lat":39.907325952100003,"lng":116.509632537,"OBJECTID":22,"北京市2":22,"X":116.509632537,"Y":39.907325952000001,"LongNTL_20":35.034999847412109}},{"type":"Feature","id":22,"geometry":{"type":"Point","coordinates":[116.48950565600001,39.907555099000035]},"properties":{"FID":22,"stationid":23,"stationnam":"SIHUI","count":1086591,"站点中":"四惠","刷卡排":36,"lineids":"{1}","linenames":"{地铁1号线八通线}","lat":39.907555098899998,"lng":116.48950565600001,"OBJECTID":23,"北京市2":23,"X":116.48950565600001,"Y":39.907555099,"LongNTL_20":57.005001068115234}},{"type":"Feature","id":23,"geometry":{"type":"Point","coordinates":[116.40196849000006,39.947721096000066]},"properties":{"FID":23,"stationid":24,"stationnam":"ANDINGMEN","count":527377,"站点中":"安定门","刷卡排":162,"lineids":"{2}","linenames":"{地铁2号线}","lat":39.9477210963,"lng":116.40196849,"OBJECTID":24,"北京市2":24,"X":116.40196849,"Y":39.947721096000002,"LongNTL_20":37.599998474121094}},{"type":"Feature","id":24,"geometry":{"type":"Point","coordinates":[116.37796474700008,39.898730341000089]},"properties":{"FID":24,"stationid":25,"stationnam":"HEPINGMEN","count":413468,"站点中":"和平门","刷卡排":200,"lineids":"{2}","linenames":"{地铁2号线}","lat":39.898730340599997,"lng":116.37796474699999,"OBJECTID":25,"北京市2":25,"X":116.37796474699999,"Y":39.898730340999997,"LongNTL_20":64.635002136230469}},{"type":"Feature","id":25,"geometry":{"type":"Point","coordinates":[116.42791429200008,39.932539571000063]},"properties":{"FID":25,"stationid":26,"stationnam":"DONGSI SHITIAO","count":1029742,"站点中":"东四十条","刷卡排":41,"lineids":"{2}","linenames":"{地铁2号线}","lat":39.932539571,"lng":116.427914292,"OBJECTID":26,"北京市2":26,"X":116.427914292,"Y":39.932539571,"LongNTL_20":59.865001678466797}},{"type":"Feature","id":26,"geometry":{"type":"Point","coordinates":[116.36624531200005,39.946754021000061]},"properties":{"FID":26,"stationid":27,"stationnam":"JISHUITAN","count":1581924,"站点中":"积水潭","刷卡排":17,"lineids":"{2,16}","linenames":"{地铁2号线,地铁19号线}","lat":39.9467540212,"lng":116.366245312,"OBJECTID":27,"北京市2":27,"X":116.366245312,"Y":39.946754020999997,"LongNTL_20":43.479999542236328}},{"type":"Feature","id":27,"geometry":{"type":"Point","coordinates":[116.35005863200001,39.92239400200009]},"properties":{"FID":27,"stationid":28,"stationnam":"FUCHENGMEN","count":1193330,"站点中":"阜成门","刷卡排":26,"lineids":"{2}","linenames":"{地铁2号线}","lat":39.922394001599997,"lng":116.350058632,"OBJECTID":28,"北京市2":28,"X":116.350058632,"Y":39.922394001999997,"LongNTL_20":48.220001220703125}},{"type":"Feature","id":28,"geometry":{"type":"Point","coordinates":[116.39272377700001,39.89818404500005]},"properties":{"FID":28,"stationid":29,"stationnam":"QIANMEN","count":534328,"站点中":"前门","刷卡排":161,"lineids":"{2,7}","linenames":"{地铁2号线,地铁8号线}","lat":39.898184045000001,"lng":116.392723777,"OBJECTID":29,"北京市2":29,"X":116.392723777,"Y":39.898184045000001,"LongNTL_20":137.69000244140625}},{"type":"Feature","id":29,"geometry":{"type":"Point","coordinates":[116.3571623360001,39.898084653000069]},"properties":{"FID":29,"stationid":30,"stationnam":"ZHANGCHUN JIE","count":960915,"站点中":"长椿街","刷卡排":52,"lineids":"{2}","linenames":"{地铁2号线}","lat":39.8980846535,"lng":116.357162336,"OBJECTID":30,"北京市2":30,"X":116.357162336,"Y":39.898084652999998,"LongNTL_20":51.439998626708984}},{"type":"Feature","id":30,"geometry":{"type":"Point","coordinates":[116.42090665700005,39.903685616000075]},"properties":{"FID":30,"stationid":31,"stationnam":"BEIJING RAILWAY STATION","count":1878410,"站点中":"北京站","刷卡排":10,"lineids":"{2}","linenames":"{地铁2号线}","lat":39.903685615900002,"lng":116.420906657,"OBJECTID":31,"北京市2":31,"X":116.420906657,"Y":39.903685615999997,"LongNTL_20":70.605003356933594}},{"type":"Feature","id":31,"geometry":{"type":"Point","coordinates":[116.36815049900008,39.898414863000085]},"properties":{"FID":31,"stationid":32,"stationnam":"XUANWUMEN","count":729505,"站点中":"宣武门","刷卡排":100,"lineids":"{2,3}","linenames":"{地铁2号线,地铁4号线大兴线}","lat":39.898414862599999,"lng":116.368150499,"OBJECTID":32,"北京市2":32,"X":116.368150499,"Y":39.898414862999999,"LongNTL_20":63.950000762939453}},{"type":"Feature","id":32,"geometry":{"type":"Point","coordinates":[116.34868017000008,39.939362266000046]},"properties":{"FID":32,"stationid":33,"stationnam":"XIZHIMEN","count":2073608,"站点中":"西直门","刷卡排":7,"lineids":"{2,3,11}","linenames":"{地铁2号线,地铁4号线大兴线,地铁13号线}","lat":39.9393622662,"lng":116.34868016999999,"OBJECTID":33,"北京市2":33,"X":116.34868016999999,"Y":39.939362266000003,"LongNTL_20":52.974998474121094}},{"type":"Feature","id":33,"geometry":{"type":"Point","coordinates":[116.41046523300008,39.947490108000068]},"properties":{"FID":33,"stationid":34,"stationnam":"LAMA TEMPLE","count":902968,"站点中":"雍和宫","刷卡排":64,"lineids":"{2,4}","linenames":"{地铁2号线,地铁5号线}","lat":39.9474901078,"lng":116.410465233,"OBJECTID":34,"北京市2":34,"X":116.410465233,"Y":39.947490107999997,"LongNTL_20":32.784999847412109}},{"type":"Feature","id":34,"geometry":{"type":"Point","coordinates":[116.41176593,39.899557654000034]},"properties":{"FID":34,"stationid":35,"stationnam":"CHONGWENMEN","count":1605877,"站点中":"崇文门","刷卡排":15,"lineids":"{2,4}","linenames":"{地铁2号线,地铁5号线}","lat":39.899557653800002,"lng":116.41176593,"OBJECTID":35,"北京市2":35,"X":116.41176593,"Y":39.899557653999999,"LongNTL_20":67.05999755859375}},{"type":"Feature","id":35,"geometry":{"type":"Point","coordinates":[116.42747300000008,39.923150247000081]},"properties":{"FID":35,"stationid":36,"stationnam":"CHAOYANGMEN","count":1980342,"站点中":"朝阳门","刷卡排":9,"lineids":"{2,5}","linenames":"{地铁2号线,地铁6号线}","lat":39.923150247199999,"lng":116.42747300000001,"OBJECTID":36,"北京市2":36,"X":116.42747300000001,"Y":39.923150247000002,"LongNTL_20":51.229999542236328}},{"type":"Feature","id":36,"geometry":{"type":"Point","coordinates":[116.34912594400009,39.931237016000068]},"properties":{"FID":36,"stationid":37,"stationnam":"CHEGONGZHUANG","count":804516,"站点中":"车公庄","刷卡排":83,"lineids":"{2,5}","linenames":"{地铁2号线,地铁6号线}","lat":39.931237016399997,"lng":116.34912594399999,"OBJECTID":37,"北京市2":37,"X":116.34912594399999,"Y":39.931237015999997,"LongNTL_20":47.990001678466797}},{"type":"Feature","id":37,"geometry":{"type":"Point","coordinates":[116.38760852000007,39.94687906200005]},"properties":{"FID":37,"stationid":38,"stationnam":"GULOUDAJIE","count":606336,"站点中":"鼓楼大街","刷卡排":136,"lineids":"{2,7}","linenames":"{地铁2号线,地铁8号线}","lat":39.946879062100002,"lng":116.38760852,"OBJECTID":38,"北京市2":38,"X":116.38760852,"Y":39.946879062000001,"LongNTL_20":33.345001220703125}},{"type":"Feature","id":38,"geometry":{"type":"Point","coordinates":[116.428634085,39.940480138000055]},"properties":{"FID":38,"stationid":39,"stationnam":"DONGZHIMEN","count":2476328,"站点中":"东直门","刷卡排":3,"lineids":"{2,11,21}","linenames":"{地铁2号线,地铁13号线,首都机场线}","lat":39.940480137900003,"lng":116.428634085,"OBJECTID":39,"北京市2":39,"X":116.428634085,"Y":39.940480137999998,"LongNTL_20":47.580001831054688}},{"type":"Feature","id":39,"geometry":{"type":"Point","coordinates":[116.32622174900007,39.752085929000089]},"properties":{"FID":39,"stationid":40,"stationnam":"ZAOYUAN","count":611669,"站点中":"枣园","刷卡排":134,"lineids":"{3}","linenames":"{地铁4号线大兴线}","lat":39.752085929400003,"lng":116.326221749,"OBJECTID":40,"北京市2":40,"X":116.326221749,"Y":39.752085929000003,"LongNTL_20":28.245000839233398}},{"type":"Feature","id":40,"geometry":{"type":"Point","coordinates":[116.315576276,39.685199554000064]},"properties":{"FID":40,"stationid":41,"stationnam":"SHENGWU YIYAO JIDI","count":520172,"站点中":"生物医药基地","刷卡排":165,"lineids":"{3}","linenames":"{地铁4号线大兴线}","lat":39.6851995536,"lng":116.315576276,"OBJECTID":41,"北京市2":41,"X":116.315576276,"Y":39.685199554,"LongNTL_20":32.544998168945312}},{"type":"Feature","id":41,"geometry":{"type":"Point","coordinates":[116.32674668900006,39.721344607000049]},"properties":{"FID":41,"stationid":42,"stationnam":"HUANGCUN RAILWAY STATION","count":379061,"站点中":"黄村火车站","刷卡排":212,"lineids":"{3}","linenames":"{地铁4号线大兴线}","lat":39.721344607399999,"lng":116.326746689,"OBJECTID":42,"北京市2":42,"X":116.326746689,"Y":39.721344606999999,"LongNTL_20":31.594999313354492}},{"type":"Feature","id":42,"geometry":{"type":"Point","coordinates":[116.32626816200002,39.741362775000084]},"properties":{"FID":42,"stationid":43,"stationnam":"QINGYUAN LU","count":505429,"站点中":"清源路","刷卡排":171,"lineids":"{3}","linenames":"{地铁4号线大兴线}","lat":39.741362774700001,"lng":116.32626816200001,"OBJECTID":43,"北京市2":43,"X":116.32626816200001,"Y":39.741362774999999,"LongNTL_20":33.595001220703125}},{"type":"Feature","id":43,"geometry":{"type":"Point","coordinates":[116.36753469200005,39.914685908000081]},"properties":{"FID":43,"stationid":44,"stationnam":"LINGJING HUTONG","count":636911,"站点中":"灵境胡同","刷卡排":126,"lineids":"{3}","linenames":"{地铁4号线大兴线}","lat":39.914685907799999,"lng":116.36753469200001,"OBJECTID":44,"北京市2":44,"X":116.36753469200001,"Y":39.914685908000003,"LongNTL_20":39.794998168945312}},{"type":"Feature","id":44,"geometry":{"type":"Point","coordinates":[116.313801678,39.669025054000087]},"properties":{"FID":44,"stationid":45,"stationnam":"TIANGONGYUAN","count":834820,"站点中":"天宫院","刷卡排":76,"lineids":"{3}","linenames":"{地铁4号线大兴线}","lat":39.669025053699997,"lng":116.313801678,"OBJECTID":45,"北京市2":45,"X":116.313801678,"Y":39.669025054000002,"LongNTL_20":21.424999237060547}},{"type":"Feature","id":45,"geometry":{"type":"Point","coordinates":[116.31538855700001,39.96566542000005]},"properties":{"FID":45,"stationid":46,"stationnam":"RENMIN UNIVERSITY","count":916434,"站点中":"人民大学","刷卡排":62,"lineids":"{3}","linenames":"{地铁4号线大兴线}","lat":39.965665420000001,"lng":116.31538855700001,"OBJECTID":46,"北京市2":46,"X":116.31538855700001,"Y":39.965665420000001,"LongNTL_20":50.185001373291016}},{"type":"Feature","id":46,"geometry":{"type":"Point","coordinates":[116.36141345700003,39.939247897000087]},"properties":{"FID":46,"stationid":47,"stationnam":"XINJIEKOU","count":468432,"站点中":"新街口","刷卡排":180,"lineids":"{3}","linenames":"{地铁4号线大兴线}","lat":39.9392478969,"lng":116.361413457,"OBJECTID":47,"北京市2":47,"X":116.361413457,"Y":39.939247897000001,"LongNTL_20":38.520000457763672}},{"type":"Feature","id":47,"geometry":{"type":"Point","coordinates":[116.36458718100005,39.834936072000062]},"properties":{"FID":47,"stationid":48,"stationnam":"GONGYI XIQIAO","count":655019,"站点中":"公益西桥","刷卡排":116,"lineids":"{3}","linenames":"{地铁4号线大兴线}","lat":39.834936071800001,"lng":116.364587181,"OBJECTID":48,"北京市2":48,"X":116.364587181,"Y":39.834936071999998,"LongNTL_20":35.450000762939453}},{"type":"Feature","id":48,"geometry":{"type":"Point","coordinates":[116.36516021300008,39.851788247000059]},"properties":{"FID":48,"stationid":49,"stationnam":"MAJIAPU","count":473001,"站点中":"马家堡","刷卡排":179,"lineids":"{3}","linenames":"{地铁4号线大兴线}","lat":39.851788247099996,"lng":116.365160213,"OBJECTID":49,"北京市2":49,"X":116.365160213,"Y":39.851788247000002,"LongNTL_20":44.340000152587891}},{"type":"Feature","id":49,"geometry":{"type":"Point","coordinates":[116.31039016,39.982774867000046]},"properties":{"FID":49,"stationid":50,"stationnam":"ZHONGGUANCUN","count":998665,"站点中":"中关村","刷卡排":47,"lineids":"{3}","linenames":"{地铁4号线大兴线}","lat":39.982774866600003,"lng":116.31039016,"OBJECTID":50,"北京市2":50,"X":116.31039016,"Y":39.982774867000003,"LongNTL_20":40.5}},{"type":"Feature","id":50,"geometry":{"type":"Point","coordinates":[116.32459561000007,39.772547492000058]},"properties":{"FID":50,"stationid":51,"stationnam":"GAOMIDIANBEI","count":383174,"站点中":"高米店北","刷卡排":209,"lineids":"{3}","linenames":"{地铁4号线大兴线}","lat":39.772547491499999,"lng":116.32459561,"OBJECTID":51,"北京市2":51,"X":116.32459561,"Y":39.772547492000001,"LongNTL_20":39.490001678466797}},{"type":"Feature","id":51,"geometry":{"type":"Point","coordinates":[116.36819056200011,39.877153072000056]},"properties":{"FID":51,"stationid":52,"stationnam":"TAORANTING","count":822897,"站点中":"陶然亭","刷卡排":79,"lineids":"{3}","linenames":"{地铁4号线大兴线}","lat":39.877153071999999,"lng":116.368190562,"OBJECTID":52,"北京市2":52,"X":116.368190562,"Y":39.877153071999999,"LongNTL_20":36.049999237060547}},{"type":"Feature","id":52,"geometry":{"type":"Point","coordinates":[116.32245864200002,39.78843217900004]},"properties":{"FID":52,"stationid":53,"stationnam":"XIHONGMEN","count":1126880,"站点中":"西红门","刷卡排":31,"lineids":"{3}","linenames":"{地铁4号线大兴线}","lat":39.788432178599997,"lng":116.322458642,"OBJECTID":53,"北京市2":53,"X":116.322458642,"Y":39.788432178999997,"LongNTL_20":28.870000839233398}},{"type":"Feature","id":53,"geometry":{"type":"Point","coordinates":[116.32638485000007,39.73039293800008]},"properties":{"FID":53,"stationid":54,"stationnam":"HUANGCUN XIDAJIE","count":635788,"站点中":"黄村西大街","刷卡排":128,"lineids":"{3}","linenames":"{地铁4号线大兴线}","lat":39.730392938000001,"lng":116.32638485,"OBJECTID":54,"北京市2":54,"X":116.32638485,"Y":39.730392938000001,"LongNTL_20":35.669998168945312}},{"type":"Feature","id":54,"geometry":{"type":"Point","coordinates":[116.26398172200004,40.011125175000075]},"properties":{"FID":54,"stationid":55,"stationnam":"ANHEQIAO NORTH","count":388552,"站点中":"安河桥北","刷卡排":205,"lineids":"{3}","linenames":"{地铁4号线大兴线}","lat":40.0111251752,"lng":116.263981722,"OBJECTID":55,"北京市2":55,"X":116.263981722,"Y":40.011125174999997,"LongNTL_20":24.989999771118164}},{"type":"Feature","id":55,"geometry":{"type":"Point","coordinates":[116.36708239800009,39.922807571000078]},"properties":{"FID":55,"stationid":56,"stationnam":"XISI","count":461304,"站点中":"西四","刷卡排":183,"lineids":"{3}","linenames":"{地铁4号线大兴线}","lat":39.922807571200003,"lng":116.36708239799999,"OBJECTID":56,"北京市2":56,"X":116.36708239799999,"Y":39.922807571,"LongNTL_20":36.205001831054688}},{"type":"Feature","id":56,"geometry":{"type":"Point","coordinates":[116.3033208060001,39.99816975400006]},"properties":{"FID":56,"stationid":57,"stationnam":"YUANMINGYUAN PARK","count":384262,"站点中":"圆明园","刷卡排":208,"lineids":"{3}","linenames":"{地铁4号线大兴线}","lat":39.998169754099997,"lng":116.303320806,"OBJECTID":57,"北京市2":57,"X":116.303320806,"Y":39.998169754000003,"LongNTL_20":22.75}},{"type":"Feature","id":57,"geometry":{"type":"Point","coordinates":[116.30959383700008,39.990811854000071]},"properties":{"FID":57,"stationid":58,"stationnam":"PEKING UNIVERSITY EAST GATE","count":497290,"站点中":"北京大学东门","刷卡排":174,"lineids":"{3}","linenames":"{地铁4号线大兴线}","lat":39.990811853799997,"lng":116.30959383699999,"OBJECTID":58,"北京市2":58,"X":116.30959383699999,"Y":39.990811854,"LongNTL_20":34.680000305175781}},{"type":"Feature","id":58,"geometry":{"type":"Point","coordinates":[116.33243984900002,39.93694434400004]},"properties":{"FID":58,"stationid":59,"stationnam":"BEIJING ZOO","count":599992,"站点中":"动物园","刷卡排":140,"lineids":"{3}","linenames":"{地铁4号线大兴线}","lat":39.936944344499999,"lng":116.332439849,"OBJECTID":59,"北京市2":59,"X":116.332439849,"Y":39.936944343999997,"LongNTL_20":40.889999389648438}},{"type":"Feature","id":59,"geometry":{"type":"Point","coordinates":[116.360134571,39.811009617000082]},"properties":{"FID":59,"stationid":60,"stationnam":"XINGONG","count":1040420,"站点中":"新宫","刷卡排":40,"lineids":"{3,16}","linenames":"{地铁4号线大兴线,地铁19号线}","lat":39.811009617400003,"lng":116.360134571,"OBJECTID":60,"北京市2":60,"X":116.360134571,"Y":39.811009617000003,"LongNTL_20":31.159999847412109}},{"type":"Feature","id":60,"geometry":{"type":"Point","coordinates":[116.27154172100006,40.001092819000064]},"properties":{"FID":60,"stationid":61,"stationnam":"BEIGONGMEN","count":601062,"站点中":"北宫门","刷卡排":138,"lineids":"{3}","linenames":"{地铁4号线大兴线}","lat":40.001092818700002,"lng":116.27154172100001,"OBJECTID":61,"北京市2":61,"X":116.27154172100001,"Y":40.001092819,"LongNTL_20":33.180000305175781}},{"type":"Feature","id":61,"geometry":{"type":"Point","coordinates":[116.31290216800005,39.711179146000063]},"properties":{"FID":61,"stationid":62,"stationnam":"YIHEZHUANG","count":248603,"站点中":"义和庄","刷卡排":252,"lineids":"{3}","linenames":"{地铁4号线大兴线}","lat":39.711179146200003,"lng":116.31290216799999,"OBJECTID":62,"北京市2":62,"X":116.31290216799999,"Y":39.711179145999999,"LongNTL_20":64.05999755859375}},{"type":"Feature","id":62,"geometry":{"type":"Point","coordinates":[116.32566216500004,39.762063219000083]},"properties":{"FID":62,"stationid":63,"stationnam":"GAOMIDIANNAN","count":419320,"站点中":"高米店南","刷卡排":196,"lineids":"{3}","linenames":"{地铁4号线大兴线}","lat":39.762063218599998,"lng":116.325662165,"OBJECTID":63,"北京市2":63,"X":116.325662165,"Y":39.762063218999998,"LongNTL_20":32.5}},{"type":"Feature","id":63,"geometry":{"type":"Point","coordinates":[116.31716988000005,39.956378376000089]},"properties":{"FID":63,"stationid":64,"stationnam":"WEIGONGCUN","count":799130,"站点中":"魏公村","刷卡排":85,"lineids":"{3}","linenames":"{地铁4号线大兴线}","lat":39.956378376099998,"lng":116.31716987999999,"OBJECTID":64,"北京市2":64,"X":116.31716987999999,"Y":39.956378376000004,"LongNTL_20":37.639999389648438}},{"type":"Feature","id":64,"geometry":{"type":"Point","coordinates":[116.36455277700009,39.931636150000088]},"properties":{"FID":64,"stationid":65,"stationnam":"PING'ANLI","count":676847,"站点中":"平安里","刷卡排":112,"lineids":"{3,5}","linenames":"{地铁4号线大兴线,地铁6号线}","lat":39.931636150199999,"lng":116.364552777,"OBJECTID":65,"北京市2":65,"X":116.364552777,"Y":39.931636150000003,"LongNTL_20":34.069999694824219}},{"type":"Feature","id":65,"geometry":{"type":"Point","coordinates":[116.36825048700007,39.887907932000076]},"properties":{"FID":65,"stationid":66,"stationnam":"CAISHIKOU","count":537678,"站点中":"菜市口","刷卡排":159,"lineids":"{3,6}","linenames":"{地铁4号线大兴线,地铁7号线}","lat":39.887907931699999,"lng":116.368250487,"OBJECTID":66,"北京市2":66,"X":116.368250487,"Y":39.887907931999997,"LongNTL_20":34.799999237060547}},{"type":"Feature","id":66,"geometry":{"type":"Point","coordinates":[116.31886165700007,39.941405718000055]},"properties":{"FID":66,"stationid":67,"stationnam":"NATIONAL LIBRARY","count":706429,"站点中":"国家图书馆","刷卡排":105,"lineids":"{3,8,14}","linenames":"{地铁4号线大兴线,地铁9号线,地铁16号线}","lat":39.9414057177,"lng":116.318861657,"OBJECTID":67,"北京市2":67,"X":116.318861657,"Y":39.941405717999999,"LongNTL_20":33.740001678466797}},{"type":"Feature","id":67,"geometry":{"type":"Point","coordinates":[116.31166488700001,39.974704920000079]},"properties":{"FID":67,"stationid":68,"stationnam":"HAIDIANHUANGZHUANG","count":1586578,"站点中":"海淀黄庄","刷卡排":16,"lineids":"{3,9}","linenames":"{地铁4号线大兴线,地铁10号线}","lat":39.974704920299999,"lng":116.31166488700001,"OBJECTID":68,"北京市2":68,"X":116.31166488700001,"Y":39.974704920000001,"LongNTL_20":41.014999389648438}},{"type":"Feature","id":68,"geometry":{"type":"Point","coordinates":[116.36493429000006,39.844525334000082]},"properties":{"FID":68,"stationid":69,"stationnam":"JIAOMEN WEST","count":848278,"站点中":"角门西","刷卡排":73,"lineids":"{3,9}","linenames":"{地铁4号线大兴线,地铁10号线}","lat":39.8445253338,"lng":116.36493428999999,"OBJECTID":69,"北京市2":69,"X":116.36493428999999,"Y":39.844525333999997,"LongNTL_20":40.580001831054688}},{"type":"Feature","id":69,"geometry":{"type":"Point","coordinates":[116.37293992800005,39.863550608000082]},"properties":{"FID":69,"stationid":70,"stationnam":"BEIJING SOUTH RAILWAY STATION","count":2861539,"站点中":"北京南站","刷卡排":1,"lineids":"{3,12}","linenames":"{地铁4号线大兴线,地铁14号线}","lat":39.863550607500002,"lng":116.37293992799999,"OBJECTID":70,"北京市2":70,"X":116.37293992799999,"Y":39.863550607999997,"LongNTL_20":54.549999237060547}},{"type":"Feature","id":70,"geometry":{"type":"Point","coordinates":[116.28536515300004,39.997354097000084]},"properties":{"FID":70,"stationid":71,"stationnam":"XIYUAN","count":524799,"站点中":"西苑","刷卡排":164,"lineids":"{3,14}","linenames":"{地铁4号线大兴线,地铁16号线}","lat":39.997354096999999,"lng":116.285365153,"OBJECTID":71,"北京市2":71,"X":116.285365153,"Y":39.997354096999999,"LongNTL_20":28.795000076293945}},{"type":"Feature","id":71,"geometry":{"type":"Point","coordinates":[116.4158730900001,39.856157820000078]},"properties":{"FID":71,"stationid":72,"stationnam":"LIUJIAYAO","count":788531,"站点中":"刘家窑","刷卡排":90,"lineids":"{4}","linenames":"{地铁5号线}","lat":39.856157819700002,"lng":116.41587309000001,"OBJECTID":72,"北京市2":72,"X":116.41587309000001,"Y":39.85615782,"LongNTL_20":45.615001678466797}},{"type":"Feature","id":72,"geometry":{"type":"Point","coordinates":[116.40832170900001,40.040488750000065]},"properties":{"FID":72,"stationid":73,"stationnam":"LISHUIQIAO SOUTH","count":766412,"站点中":"立水桥南","刷卡排":95,"lineids":"{4}","linenames":"{地铁5号线}","lat":40.040488750400002,"lng":116.40832170900001,"OBJECTID":73,"北京市2":73,"X":116.40832170900001,"Y":40.040488750000002,"LongNTL_20":33.830001831054688}},{"type":"Feature","id":73,"geometry":{"type":"Point","coordinates":[116.41470237300007,39.88093622100007]},"properties":{"FID":73,"stationid":74,"stationnam":"TEMPLE OF HEAVEN EAST GATE","count":573163,"站点中":"天坛东门","刷卡排":147,"lineids":"{4}","linenames":"{地铁5号线}","lat":39.880936221100001,"lng":116.414702373,"OBJECTID":74,"北京市2":74,"X":116.414702373,"Y":39.880936220999999,"LongNTL_20":29.370000839233398}},{"type":"Feature","id":74,"geometry":{"type":"Point","coordinates":[116.40671302800001,40.08191322600004]},"properties":{"FID":74,"stationid":75,"stationnam":"TIANTONGYUAN NORTH","count":1816455,"站点中":"天通苑北","刷卡排":11,"lineids":"{4}","linenames":"{地铁5号线}","lat":40.081913225699999,"lng":116.406713028,"OBJECTID":75,"北京市2":75,"X":116.406713028,"Y":40.081913225999998,"LongNTL_20":21.969999313354492}},{"type":"Feature","id":75,"geometry":{"type":"Point","coordinates":[116.41091905500002,39.939508970000077]},"properties":{"FID":75,"stationid":76,"stationnam":"BEIXINQIAO","count":543072,"站点中":"北新桥","刷卡排":156,"lineids":"{4,21}","linenames":"{地铁5号线,首都机场线}","lat":39.939508969899997,"lng":116.41091905499999,"OBJECTID":76,"北京市2":76,"X":116.41091905499999,"Y":39.939508969999999,"LongNTL_20":51.685001373291016}},{"type":"Feature","id":76,"geometry":{"type":"Point","coordinates":[116.40645967400008,40.065071501000034]},"properties":{"FID":76,"stationid":77,"stationnam":"TIANTONGYUAN SOUTH","count":587295,"站点中":"天通苑南","刷卡排":145,"lineids":"{4}","linenames":"{地铁5号线}","lat":40.065071500800002,"lng":116.406459674,"OBJECTID":77,"北京市2":77,"X":116.406459674,"Y":40.065071500999998,"LongNTL_20":24.694999694824219}},{"type":"Feature","id":77,"geometry":{"type":"Point","coordinates":[116.41237818500008,39.957155034000039]},"properties":{"FID":77,"stationid":78,"stationnam":"HEPINGLI BEIJIE","count":622405,"站点中":"和平里北街","刷卡排":131,"lineids":"{4}","linenames":"{地铁5号线}","lat":39.957155034400003,"lng":116.41237818499999,"OBJECTID":78,"北京市2":78,"X":116.41237818499999,"Y":39.957155034000003,"LongNTL_20":36.25}},{"type":"Feature","id":78,"geometry":{"type":"Point","coordinates":[116.41178201500009,39.966892228000063]},"properties":{"FID":78,"stationid":79,"stationnam":"HEPING XIQIAO","count":691760,"站点中":"和平西桥","刷卡排":107,"lineids":"{4}","linenames":"{地铁5号线}","lat":39.966892227599999,"lng":116.411782015,"OBJECTID":79,"北京市2":79,"X":116.411782015,"Y":39.966892227999999,"LongNTL_20":37.854999542236328}},{"type":"Feature","id":79,"geometry":{"type":"Point","coordinates":[116.4118542110001,40.029215782000051]},"properties":{"FID":79,"stationid":80,"stationnam":"BEIYUANLU NORTH","count":925022,"站点中":"北苑路北","刷卡排":59,"lineids":"{4}","linenames":"{地铁5号线}","lat":40.029215782199998,"lng":116.411854211,"OBJECTID":80,"北京市2":80,"X":116.411854211,"Y":40.029215782000001,"LongNTL_20":30.659999847412109}},{"type":"Feature","id":80,"geometry":{"type":"Point","coordinates":[116.4109326470001,39.932301343000063]},"properties":{"FID":80,"stationid":81,"stationnam":"ZHANGZIZHONG LU","count":354832,"站点中":"张自忠路","刷卡排":216,"lineids":"{4}","linenames":"{地铁5号线}","lat":39.932301342599999,"lng":116.410932647,"OBJECTID":81,"北京市2":81,"X":116.410932647,"Y":39.932301342999999,"LongNTL_20":40.215000152587891}},{"type":"Feature","id":81,"geometry":{"type":"Point","coordinates":[116.41161734700006,39.915767208000034]},"properties":{"FID":81,"stationid":82,"stationnam":"DENGSHIKOU","count":807277,"站点中":"灯市口","刷卡排":81,"lineids":"{4}","linenames":"{地铁5号线}","lat":39.915767207800002,"lng":116.411617347,"OBJECTID":82,"北京市2":82,"X":116.411617347,"Y":39.915767207999998,"LongNTL_20":43.014999389648438}},{"type":"Feature","id":82,"geometry":{"type":"Point","coordinates":[116.4065705270001,40.073795719000088]},"properties":{"FID":82,"stationid":83,"stationnam":"TIANTONGYUAN","count":1435399,"站点中":"天通苑","刷卡排":19,"lineids":"{4}","linenames":"{地铁5号线}","lat":40.073795718900001,"lng":116.406570527,"OBJECTID":83,"北京市2":83,"X":116.406570527,"Y":40.073795719000003,"LongNTL_20":22.584999084472656}},{"type":"Feature","id":83,"geometry":{"type":"Point","coordinates":[116.41084162900006,39.986523634000037]},"properties":{"FID":83,"stationid":84,"stationnam":"HUIXIN XIJIE BEIKOU","count":979920,"站点中":"惠新西街北口","刷卡排":51,"lineids":"{4}","linenames":"{地铁5号线}","lat":39.986523633700003,"lng":116.410841629,"OBJECTID":84,"北京市2":84,"X":116.410841629,"Y":39.986523634000001,"LongNTL_20":42.724998474121094}},{"type":"Feature","id":84,"geometry":{"type":"Point","coordinates":[116.41063962200008,39.922913225000059]},"properties":{"FID":84,"stationid":85,"stationnam":"DONGSI","count":689928,"站点中":"东四","刷卡排":108,"lineids":"{4,5}","linenames":"{地铁5号线,地铁6号线}","lat":39.922913225400002,"lng":116.41063962200001,"OBJECTID":85,"北京市2":85,"X":116.41063962200001,"Y":39.922913225000002,"LongNTL_20":37.959999084472656}},{"type":"Feature","id":85,"geometry":{"type":"Point","coordinates":[116.41321015800008,39.891752515000064]},"properties":{"FID":85,"stationid":86,"stationnam":"CIQIKOU","count":619659,"站点中":"磁器口","刷卡排":132,"lineids":"{4,6}","linenames":"{地铁5号线,地铁7号线}","lat":39.891752515299999,"lng":116.413210158,"OBJECTID":86,"北京市2":86,"X":116.413210158,"Y":39.891752515,"LongNTL_20":44.284999847412109}},{"type":"Feature","id":86,"geometry":{"type":"Point","coordinates":[116.41135689500004,39.975657139000077]},"properties":{"FID":86,"stationid":87,"stationnam":"HUIXIN XIJIE NANKOU","count":757704,"站点中":"惠新西街南口","刷卡排":96,"lineids":"{4,9}","linenames":"{地铁5号线,地铁10号线}","lat":39.975657138999999,"lng":116.411356895,"OBJECTID":87,"北京市2":87,"X":116.411356895,"Y":39.975657138999999,"LongNTL_20":34.080001831054688}},{"type":"Feature","id":87,"geometry":{"type":"Point","coordinates":[116.42219740200005,39.844318074000057]},"properties":{"FID":87,"stationid":88,"stationnam":"SONGJIAZHUANG","count":1707810,"站点中":"宋家庄","刷卡排":12,"lineids":"{4,9,24}","linenames":"{地铁5号线,地铁10号线,地铁亦庄线}","lat":39.8443180736,"lng":116.42219740199999,"OBJECTID":88,"北京市2":88,"X":116.42219740199999,"Y":39.844318074,"LongNTL_20":37.544998168945312}},{"type":"Feature","id":88,"geometry":{"type":"Point","coordinates":[116.40832170900001,40.040488750000065]},"properties":{"FID":88,"stationid":89,"stationnam":"LISHUIQIAO","count":1133987,"站点中":"立水桥南","刷卡排":30,"lineids":"{4}","linenames":"{地铁5号线}","lat":40.040488750400002,"lng":116.40832170900001,"OBJECTID":89,"北京市2":89,"X":116.40832170900001,"Y":40.040488750000002,"LongNTL_20":33.830001831054688}},{"type":"Feature","id":89,"geometry":{"type":"Point","coordinates":[116.41618432000007,39.864153843000054]},"properties":{"FID":89,"stationid":90,"stationnam":"PUHUANGYU","count":824528,"站点中":"蒲黄榆","刷卡排":78,"lineids":"{4,12}","linenames":"{地铁5号线,地铁14号线}","lat":39.8641538428,"lng":116.41618432,"OBJECTID":90,"北京市2":90,"X":116.41618432,"Y":39.864153842999997,"LongNTL_20":36.884998321533203}},{"type":"Feature","id":90,"geometry":{"type":"Point","coordinates":[116.41187498700003,40.001999266000041]},"properties":{"FID":90,"stationid":91,"stationnam":"DATUNLUDONG","count":740034,"站点中":"大屯路东","刷卡排":99,"lineids":"{4,13}","linenames":"{地铁5号线,地铁15号线}","lat":40.001999266200002,"lng":116.411874987,"OBJECTID":91,"北京市2":91,"X":116.411874987,"Y":40.001999265999999,"LongNTL_20":29.674999237060547}},{"type":"Feature","id":91,"geometry":{"type":"Point","coordinates":[116.61028573400006,39.923520796000048]},"properties":{"FID":91,"stationid":92,"stationnam":"CAOFANG","count":993366,"站点中":"草房","刷卡排":48,"lineids":"{5}","linenames":"{地铁6号线}","lat":39.923520796299997,"lng":116.610285734,"OBJECTID":92,"北京市2":92,"X":116.610285734,"Y":39.923520795999998,"LongNTL_20":32.290000915527344}},{"type":"Feature","id":92,"geometry":{"type":"Point","coordinates":[116.74203973500005,39.90142970800008]},"properties":{"FID":92,"stationid":93,"stationnam":"LUCHENG","count":482678,"站点中":"潞城","刷卡排":176,"lineids":"{5}","linenames":"{地铁6号线}","lat":39.901429707799998,"lng":116.74203973500001,"OBJECTID":93,"北京市2":93,"X":116.74203973500001,"Y":39.901429708000002,"LongNTL_20":24.5}},{"type":"Feature","id":93,"geometry":{"type":"Point","coordinates":[116.72756201600009,39.902210037000089]},"properties":{"FID":93,"stationid":94,"stationnam":"DONGXIAYUAN","count":230662,"站点中":"东夏园","刷卡排":263,"lineids":"{5}","linenames":"{地铁6号线}","lat":39.902210036900001,"lng":116.72756201599999,"OBJECTID":94,"北京市2":94,"X":116.72756201599999,"Y":39.902210037000003,"LongNTL_20":49.659999847412109}},{"type":"Feature","id":94,"geometry":{"type":"Point","coordinates":[116.44566582900006,39.921636323000087]},"properties":{"FID":94,"stationid":95,"stationnam":"DONGDAQIAO","count":1305443,"站点中":"东大桥","刷卡排":23,"lineids":"{5}","linenames":"{地铁6号线}","lat":39.921636323199998,"lng":116.44566582900001,"OBJECTID":95,"北京市2":95,"X":116.44566582900001,"Y":39.921636323000001,"LongNTL_20":43.784999847412109}},{"type":"Feature","id":95,"geometry":{"type":"Point","coordinates":[116.51099982000005,39.921947498000065]},"properties":{"FID":95,"stationid":96,"stationnam":"QINGNIAN LU","count":1654918,"站点中":"青年路","刷卡排":13,"lineids":"{5}","linenames":"{地铁6号线}","lat":39.921947498100003,"lng":116.51099981999999,"OBJECTID":96,"北京市2":96,"X":116.51099981999999,"Y":39.921947498000002,"LongNTL_20":34.924999237060547}},{"type":"Feature","id":96,"geometry":{"type":"Point","coordinates":[116.38061705600001,39.931857129000036]},"properties":{"FID":96,"stationid":97,"stationnam":"BEIHAIBEI","count":553228,"站点中":"北海北","刷卡排":152,"lineids":"{5}","linenames":"{地铁6号线}","lat":39.931857129000001,"lng":116.38061705600001,"OBJECTID":97,"北京市2":97,"X":116.38061705600001,"Y":39.931857129000001,"LongNTL_20":28.049999237060547}},{"type":"Feature","id":97,"geometry":{"type":"Point","coordinates":[116.70113098100001,39.902395113000068]},"properties":{"FID":97,"stationid":98,"stationnam":"BEIYUNHEDONG","count":24698,"站点中":"北运河东","刷卡排":326,"lineids":"{5}","linenames":"{地铁6号线}","lat":39.902395113399997,"lng":116.70113098100001,"OBJECTID":98,"北京市2":98,"X":116.70113098100001,"Y":39.902395112999997,"LongNTL_20":52.709999084472656}},{"type":"Feature","id":98,"geometry":{"type":"Point","coordinates":[116.68224986400003,39.901968821000082]},"properties":{"FID":98,"stationid":99,"stationnam":"BEIYUNHEXI","count":712573,"站点中":"北运河西","刷卡排":103,"lineids":"{5}","linenames":"{地铁6号线}","lat":39.901968821099999,"lng":116.682249864,"OBJECTID":99,"北京市2":99,"X":116.682249864,"Y":39.901968820999997,"LongNTL_20":39.994998931884766}},{"type":"Feature","id":99,"geometry":{"type":"Point","coordinates":[116.49607951400003,39.921823991000053]},"properties":{"FID":99,"stationid":100,"stationnam":"SHILIPU","count":891263,"站点中":"十里堡","刷卡排":65,"lineids":"{5}","linenames":"{地铁6号线}","lat":39.921823990999997,"lng":116.496079514,"OBJECTID":100,"北京市2":100,"X":116.496079514,"Y":39.921823990999997,"LongNTL_20":30.815000534057617}},{"type":"Feature","id":100,"geometry":{"type":"Point","coordinates":[116.71160415700001,39.902291179000088]},"properties":{"FID":100,"stationid":101,"stationnam":"HAOJIAFU","count":105417,"站点中":"郝家府","刷卡排":302,"lineids":"{5}","linenames":"{地铁6号线}","lat":39.902291179199999,"lng":116.711604157,"OBJECTID":101,"北京市2":101,"X":116.711604157,"Y":39.902291179000002,"LongNTL_20":61}},{"type":"Feature","id":101,"geometry":{"type":"Point","coordinates":[116.6557477560001,39.917356936000033]},"properties":{"FID":101,"stationid":102,"stationnam":"TONGZHOU BEIGUAN","count":747763,"站点中":"通州北关","刷卡排":97,"lineids":"{5}","linenames":"{地铁6号线}","lat":39.917356935900003,"lng":116.655747756,"OBJECTID":102,"北京市2":102,"X":116.655747756,"Y":39.917356935999997,"LongNTL_20":35.845001220703125}},{"type":"Feature","id":102,"geometry":{"type":"Point","coordinates":[116.33796344200005,39.931079127000089]},"properties":{"FID":102,"stationid":103,"stationnam":"CHEGONGZHUANGXI","count":511936,"站点中":"车公庄西","刷卡排":170,"lineids":"{5}","linenames":"{地铁6号线}","lat":39.9310791272,"lng":116.337963442,"OBJECTID":103,"北京市2":103,"X":116.337963442,"Y":39.931079126999997,"LongNTL_20":49.805000305175781}},{"type":"Feature","id":103,"geometry":{"type":"Point","coordinates":[116.57251806400006,39.923244125000053]},"properties":{"FID":103,"stationid":104,"stationnam":"HUANGQU","count":646052,"站点中":"黄渠","刷卡排":121,"lineids":"{5}","linenames":"{地铁6号线}","lat":39.923244125300002,"lng":116.57251806399999,"OBJECTID":104,"北京市2":104,"X":116.57251806399999,"Y":39.923244124999997,"LongNTL_20":38.459999084472656}},{"type":"Feature","id":104,"geometry":{"type":"Point","coordinates":[116.20071593600005,39.932438896000065]},"properties":{"FID":104,"stationid":105,"stationnam":"XIHUANGCUN","count":311745,"站点中":"西黄村","刷卡排":233,"lineids":"{5}","linenames":"{地铁6号线}","lat":39.932438896199997,"lng":116.20071593599999,"OBJECTID":105,"北京市2":105,"X":116.20071593599999,"Y":39.932438896000001,"LongNTL_20":25.329999923706055}},{"type":"Feature","id":105,"geometry":{"type":"Point","coordinates":[116.55787101500005,39.922997868000039]},"properties":{"FID":105,"stationid":106,"stationnam":"DALIANPO","count":623385,"站点中":"褡裢坡","刷卡排":130,"lineids":"{5}","linenames":"{地铁6号线}","lat":39.922997867699998,"lng":116.557871015,"OBJECTID":106,"北京市2":106,"X":116.557871015,"Y":39.922997868000003,"LongNTL_20":27.065000534057617}},{"type":"Feature","id":106,"geometry":{"type":"Point","coordinates":[116.593792377,39.924687577000043]},"properties":{"FID":106,"stationid":107,"stationnam":"CHANGYING","count":1170157,"站点中":"常营","刷卡排":28,"lineids":"{5}","linenames":"{地铁6号线}","lat":39.924687576700002,"lng":116.593792377,"OBJECTID":107,"北京市2":107,"X":116.593792377,"Y":39.924687577,"LongNTL_20":29.899999618530273}},{"type":"Feature","id":107,"geometry":{"type":"Point","coordinates":[116.22091601400007,39.93112751700005]},"properties":{"FID":107,"stationid":108,"stationnam":"LIAOGONGZHUANG","count":162912,"站点中":"廖公庄","刷卡排":284,"lineids":"{5}","linenames":"{地铁6号线}","lat":39.931127517100002,"lng":116.220916014,"OBJECTID":108,"北京市2":108,"X":116.220916014,"Y":39.931127517,"LongNTL_20":20.545000076293945}},{"type":"Feature","id":108,"geometry":{"type":"Point","coordinates":[116.3049828930001,39.931128443000034]},"properties":{"FID":108,"stationid":109,"stationnam":"HUAYUANQIAO","count":643379,"站点中":"花园桥","刷卡排":124,"lineids":"{5}","linenames":"{地铁6号线}","lat":39.9311284431,"lng":116.304982893,"OBJECTID":109,"北京市2":109,"X":116.304982893,"Y":39.931128442999999,"LongNTL_20":39.080001831054688}},{"type":"Feature","id":109,"geometry":{"type":"Point","coordinates":[116.18156778000002,39.926854311000056]},"properties":{"FID":109,"stationid":110,"stationnam":"YANGZHUANG","count":442520,"站点中":"杨庄","刷卡排":189,"lineids":"{5}","linenames":"{地铁6号线}","lat":39.926854311100001,"lng":116.18156777999999,"OBJECTID":110,"北京市2":110,"X":116.18156777999999,"Y":39.926854311,"LongNTL_20":30.819999694824219}},{"type":"Feature","id":110,"geometry":{"type":"Point","coordinates":[116.246865211,39.928360647000034]},"properties":{"FID":110,"stationid":111,"stationnam":"TIANCUN","count":423343,"站点中":"田村","刷卡排":194,"lineids":"{5}","linenames":"{地铁6号线}","lat":39.928360646800002,"lng":116.246865211,"OBJECTID":111,"北京市2":111,"X":116.246865211,"Y":39.928360646999998,"LongNTL_20":29.850000381469727}},{"type":"Feature","id":111,"geometry":{"type":"Point","coordinates":[116.63368415100001,39.925661417000072]},"properties":{"FID":111,"stationid":112,"stationnam":"WUZI XUEYUAN LU","count":955173,"站点中":"物资学院路","刷卡排":54,"lineids":"{5}","linenames":"{地铁6号线}","lat":39.925661417000001,"lng":116.633684151,"OBJECTID":112,"北京市2":112,"X":116.633684151,"Y":39.925661417000001,"LongNTL_20":28.090000152587891}},{"type":"Feature","id":112,"geometry":{"type":"Point","coordinates":[116.27054789300007,39.931040197000073]},"properties":{"FID":112,"stationid":113,"stationnam":"HAIDIAN WULUJU","count":890019,"站点中":"海淀五路居","刷卡排":66,"lineids":"{5}","linenames":"{地铁6号线}","lat":39.931040197400002,"lng":116.270547893,"OBJECTID":113,"北京市2":113,"X":116.270547893,"Y":39.931040197000002,"LongNTL_20":31.690000534057617}},{"type":"Feature","id":113,"geometry":{"type":"Point","coordinates":[116.39735945400002,39.932075833000056]},"properties":{"FID":113,"stationid":114,"stationnam":"NANLUOGU XIANG","count":806227,"站点中":"南锣鼓巷","刷卡排":82,"lineids":"{5,7}","linenames":"{地铁6号线,地铁8号线}","lat":39.932075832800003,"lng":116.397359454,"OBJECTID":114,"北京市2":114,"X":116.397359454,"Y":39.932075832999999,"LongNTL_20":31.079999923706055}},{"type":"Feature","id":114,"geometry":{"type":"Point","coordinates":[116.31898781500001,39.931512714000064]},"properties":{"FID":114,"stationid":115,"stationnam":"BAISHIQIAONAN","count":825294,"站点中":"白石桥南","刷卡排":77,"lineids":"{5,8}","linenames":"{地铁6号线,地铁9号线}","lat":39.9315127136,"lng":116.318987815,"OBJECTID":115,"北京市2":115,"X":116.318987815,"Y":39.931512714,"LongNTL_20":43.694999694824219}},{"type":"Feature","id":115,"geometry":{"type":"Point","coordinates":[116.28832342700002,39.931799886000078]},"properties":{"FID":115,"stationid":116,"stationnam":"CISHOUSI","count":412393,"站点中":"慈寿寺","刷卡排":202,"lineids":"{5,9}","linenames":"{地铁6号线,地铁10号线}","lat":39.931799886,"lng":116.28832342699999,"OBJECTID":116,"北京市2":116,"X":116.28832342699999,"Y":39.931799886,"LongNTL_20":36.619998931884766}},{"type":"Feature","id":116,"geometry":{"type":"Point","coordinates":[116.45537000700006,39.922004622000088]},"properties":{"FID":116,"stationid":117,"stationnam":"HUJIALOU","count":982307,"站点中":"呼家楼","刷卡排":50,"lineids":"{5,9}","linenames":"{地铁6号线,地铁10号线}","lat":39.922004621600003,"lng":116.455370007,"OBJECTID":117,"北京市2":117,"X":116.455370007,"Y":39.922004622000003,"LongNTL_20":44.810001373291016}},{"type":"Feature","id":117,"geometry":{"type":"Point","coordinates":[116.47226784200006,39.921988928000076]},"properties":{"FID":117,"stationid":118,"stationnam":"JINTAI LU","count":849370,"站点中":"金台路","刷卡排":72,"lineids":"{5,12}","linenames":"{地铁6号线,地铁14号线}","lat":39.921988928200001,"lng":116.47226784199999,"OBJECTID":118,"北京市2":118,"X":116.47226784199999,"Y":39.921988927999998,"LongNTL_20":33.090000152587891}},{"type":"Feature","id":118,"geometry":{"type":"Point","coordinates":[116.15609574300004,39.921629347000078]},"properties":{"FID":118,"stationid":119,"stationnam":"JIN'ANQIAO","count":566080,"站点中":"金安桥","刷卡排":150,"lineids":"{5,10,17}","linenames":"{地铁6号线,地铁11号线,地铁S1线}","lat":39.921629346700001,"lng":116.15609574299999,"OBJECTID":119,"北京市2":119,"X":116.15609574299999,"Y":39.921629347,"LongNTL_20":35.549999237060547}},{"type":"Feature","id":119,"geometry":{"type":"Point","coordinates":[116.53132291000009,39.854348773000083]},"properties":{"FID":119,"stationid":120,"stationnam":"JIAOHUACHANG","count":133686,"站点中":"焦化厂","刷卡排":293,"lineids":"{6}","linenames":"{地铁7号线}","lat":39.854348772800002,"lng":116.53132291,"OBJECTID":120,"北京市2":120,"X":116.53132291,"Y":39.854348772999998,"LongNTL_20":17.680000305175781}},{"type":"Feature","id":120,"geometry":{"type":"Point","coordinates":[116.52075898300006,39.858585520000076]},"properties":{"FID":120,"stationid":121,"stationnam":"SHUANGHE","count":333202,"站点中":"双合","刷卡排":222,"lineids":"{6}","linenames":"{地铁7号线}","lat":39.858585519499997,"lng":116.52075898299999,"OBJECTID":121,"北京市2":121,"X":116.52075898299999,"Y":39.858585519999998,"LongNTL_20":20.610000610351562}},{"type":"Feature","id":121,"geometry":{"type":"Point","coordinates":[116.44311926400007,39.892248476000077]},"properties":{"FID":121,"stationid":122,"stationnam":"GUANGQUMENWAI","count":453083,"站点中":"广渠门外","刷卡排":185,"lineids":"{6}","linenames":"{地铁7号线}","lat":39.892248475599999,"lng":116.443119264,"OBJECTID":122,"北京市2":122,"X":116.443119264,"Y":39.892248475999999,"LongNTL_20":50.924999237060547}},{"type":"Feature","id":122,"geometry":{"type":"Point","coordinates":[116.49346244500009,39.865515019000043]},"properties":{"FID":122,"stationid":126,"stationnam":"HAPPY VALLEY","count":355648,"站点中":"欢乐谷景区","刷卡排":215,"lineids":"{6}","linenames":"{地铁7号线}","lat":39.865515019100002,"lng":116.49346244500001,"OBJECTID":123,"北京市2":126,"X":116.49346244500001,"Y":39.865515019,"LongNTL_20":35.895000457763672}},{"type":"Feature","id":123,"geometry":{"type":"Point","coordinates":[116.32166880400007,39.888868878000039]},"properties":{"FID":123,"stationid":127,"stationnam":"WANZI","count":548004,"站点中":"湾子","刷卡排":154,"lineids":"{6}","linenames":"{地铁7号线}","lat":39.888868878499999,"lng":116.321668804,"OBJECTID":124,"北京市2":127,"X":116.321668804,"Y":39.888868877999997,"LongNTL_20":76.754997253417969}},{"type":"Feature","id":124,"geometry":{"type":"Point","coordinates":[116.49766742200006,39.885995318000084]},"properties":{"FID":124,"stationid":129,"stationnam":"HUAGONG","count":89402,"站点中":"化工","刷卡排":307,"lineids":"{6}","linenames":"{地铁7号线}","lat":39.885995318100001,"lng":116.49766742200001,"OBJECTID":125,"北京市2":129,"X":116.49766742200001,"Y":39.885995317999999,"LongNTL_20":44.965000152587891}},{"type":"Feature","id":125,"geometry":{"type":"Point","coordinates":[116.3294913950001,39.888681973000075]},"properties":{"FID":125,"stationid":130,"stationnam":"DAGUANYING","count":708762,"站点中":"达官营","刷卡排":104,"lineids":"{6}","linenames":"{地铁7号线}","lat":39.888681973300002,"lng":116.32949139500001,"OBJECTID":126,"北京市2":130,"X":116.32949139500001,"Y":39.888681972999997,"LongNTL_20":47.740001678466797}},{"type":"Feature","id":126,"geometry":{"type":"Point","coordinates":[116.48213747800003,39.891846647000079]},"properties":{"FID":126,"stationid":131,"stationnam":"DAJIAOTING","count":354194,"站点中":"大郊亭","刷卡排":217,"lineids":"{6}","linenames":"{地铁7号线}","lat":39.891846646899999,"lng":116.482137478,"OBJECTID":127,"北京市2":131,"X":116.482137478,"Y":39.891846647000001,"LongNTL_20":50.159999847412109}},{"type":"Feature","id":127,"geometry":{"type":"Point","coordinates":[116.37798612400002,39.888056956000071]},"properties":{"FID":127,"stationid":133,"stationnam":"HUFANGQIAO","count":304991,"站点中":"虎坊桥","刷卡排":236,"lineids":"{6}","linenames":"{地铁7号线}","lat":39.888056955899998,"lng":116.377986124,"OBJECTID":128,"北京市2":133,"X":116.377986124,"Y":39.888056956,"LongNTL_20":36.229999542236328}},{"type":"Feature","id":128,"geometry":{"type":"Point","coordinates":[116.5058603440001,39.85967806900004]},"properties":{"FID":128,"stationid":134,"stationnam":"FATOU","count":321601,"站点中":"垡头","刷卡排":229,"lineids":"{6}","linenames":"{地铁7号线}","lat":39.859678069099999,"lng":116.505860344,"OBJECTID":129,"北京市2":134,"X":116.505860344,"Y":39.859678068999997,"LongNTL_20":31.059999465942383}},{"type":"Feature","id":129,"geometry":{"type":"Point","coordinates":[116.49536414300007,39.873372879000044]},"properties":{"FID":129,"stationid":136,"stationnam":"NANLOUZIZHUANG","count":302539,"站点中":"南楼梓庄","刷卡排":240,"lineids":"{6}","linenames":"{地铁7号线}","lat":39.8733728785,"lng":116.495364143,"OBJECTID":130,"北京市2":136,"X":116.495364143,"Y":39.873372879000001,"LongNTL_20":35.889999389648438}},{"type":"Feature","id":130,"geometry":{"type":"Point","coordinates":[116.35185973700004,39.888265032000049]},"properties":{"FID":130,"stationid":138,"stationnam":"GUANG'ANMENNEI","count":857418,"站点中":"广安门内","刷卡排":70,"lineids":"{6}","linenames":"{地铁7号线}","lat":39.888265032100001,"lng":116.351859737,"OBJECTID":131,"北京市2":138,"X":116.351859737,"Y":39.888265032,"LongNTL_20":43.965000152587891}},{"type":"Feature","id":131,"geometry":{"type":"Point","coordinates":[116.42799023300006,39.892310622000082]},"properties":{"FID":131,"stationid":139,"stationnam":"GUANGQUMENNEI","count":596459,"站点中":"广渠门内","刷卡排":143,"lineids":"{6}","linenames":"{地铁7号线}","lat":39.892310622300002,"lng":116.427990233,"OBJECTID":132,"北京市2":139,"X":116.427990233,"Y":39.892310621999997,"LongNTL_20":44.244998931884766}},{"type":"Feature","id":132,"geometry":{"type":"Point","coordinates":[116.49168820900002,39.89133955300008]},"properties":{"FID":132,"stationid":140,"stationnam":"BAIZIWAN","count":643891,"站点中":"百子湾","刷卡排":123,"lineids":"{6}","linenames":"{地铁7号线}","lat":39.891339553199998,"lng":116.491688209,"OBJECTID":133,"北京市2":140,"X":116.491688209,"Y":39.891339553000002,"LongNTL_20":42.009998321533203}},{"type":"Feature","id":133,"geometry":{"type":"Point","coordinates":[116.40261633400007,39.891295054000068]},"properties":{"FID":133,"stationid":141,"stationnam":"QIAOWAN","count":241896,"站点中":"桥湾","刷卡排":257,"lineids":"{6}","linenames":"{地铁7号线}","lat":39.891295054300002,"lng":116.402616334,"OBJECTID":134,"北京市2":141,"X":116.402616334,"Y":39.891295053999997,"LongNTL_20":43.540000915527344}},{"type":"Feature","id":134,"geometry":{"type":"Point","coordinates":[116.39217844200004,39.889584446000072]},"properties":{"FID":134,"stationid":142,"stationnam":"ZHUSHIKOU","count":333090,"站点中":"珠市口","刷卡排":223,"lineids":"{6,7}","linenames":"{地铁7号线,地铁8号线}","lat":39.889584445700002,"lng":116.392178442,"OBJECTID":135,"北京市2":142,"X":116.392178442,"Y":39.889584446000001,"LongNTL_20":48.400001525878906}},{"type":"Feature","id":135,"geometry":{"type":"Point","coordinates":[116.31512217300008,39.893572179000046]},"properties":{"FID":135,"stationid":143,"stationnam":"BEIJING WEST RAILWAY STATION","count":2620155,"站点中":"北京西站","刷卡排":2,"lineids":"{6,8}","linenames":"{地铁7号线,地铁9号线}","lat":39.893572179400003,"lng":116.31512217300001,"OBJECTID":136,"北京市2":143,"X":116.31512217300001,"Y":39.893572179000003,"LongNTL_20":71.205001831054688}},{"type":"Feature","id":136,"geometry":{"type":"Point","coordinates":[116.45638243600001,39.892188938000061]},"properties":{"FID":136,"stationid":144,"stationnam":"SHUANGJING","count":1102231,"站点中":"双井","刷卡排":33,"lineids":"{6,9}","linenames":"{地铁7号线,地铁10号线}","lat":39.8921889382,"lng":116.456382436,"OBJECTID":137,"北京市2":144,"X":116.456382436,"Y":39.892188937999997,"LongNTL_20":53.314998626708984}},{"type":"Feature","id":137,"geometry":{"type":"Point","coordinates":[116.47202544600009,39.892240550000054]},"properties":{"FID":137,"stationid":145,"stationnam":"JIULONGSHAN","count":956302,"站点中":"九龙山","刷卡排":53,"lineids":"{6,12}","linenames":"{地铁7号线,地铁14号线}","lat":39.892240550099999,"lng":116.472025446,"OBJECTID":138,"北京市2":145,"X":116.472025446,"Y":39.892240549999997,"LongNTL_20":44.305000305175781}},{"type":"Feature","id":138,"geometry":{"type":"Point","coordinates":[116.43550105500003,39.771149965000063]},"properties":{"FID":138,"stationid":147,"stationnam":"DEMAO","count":75653,"站点中":"德茂","刷卡排":311,"lineids":"{7}","linenames":"{地铁8号线}","lat":39.771149965399999,"lng":116.435501055,"OBJECTID":139,"北京市2":147,"X":116.435501055,"Y":39.771149964999999,"LongNTL_20":24.309999465942383}},{"type":"Feature","id":139,"geometry":{"type":"Point","coordinates":[116.39370984300001,39.857773793000035]},"properties":{"FID":139,"stationid":148,"stationnam":"MUXIYUAN","count":212768,"站点中":"木樨园","刷卡排":268,"lineids":"{7}","linenames":"{地铁8号线}","lat":39.8577737934,"lng":116.393709843,"OBJECTID":140,"北京市2":148,"X":116.393709843,"Y":39.857773793,"LongNTL_20":35.380001068115234}},{"type":"Feature","id":140,"geometry":{"type":"Point","coordinates":[116.39484197800004,39.834878150000065]},"properties":{"FID":140,"stationid":149,"stationnam":"DAHONGMENNAN","count":50093,"站点中":"大红门南","刷卡排":320,"lineids":"{7}","linenames":"{地铁8号线}","lat":39.834878150100003,"lng":116.394841978,"OBJECTID":141,"北京市2":149,"X":116.394841978,"Y":39.834878150000002,"LongNTL_20":26.125}},{"type":"Feature","id":141,"geometry":{"type":"Point","coordinates":[116.39261116500006,39.881134938000059]},"properties":{"FID":141,"stationid":150,"stationnam":"TIANQIAO","count":176273,"站点中":"天桥","刷卡排":280,"lineids":"{7}","linenames":"{地铁8号线}","lat":39.881134937900001,"lng":116.39261116500001,"OBJECTID":142,"北京市2":150,"X":116.39261116500001,"Y":39.881134938000002,"LongNTL_20":34.180000305175781}},{"type":"Feature","id":142,"geometry":{"type":"Point","coordinates":[116.39589599200008,39.813647101000072]},"properties":{"FID":142,"stationid":151,"stationnam":"HEYI","count":163678,"站点中":"和义","刷卡排":283,"lineids":"{7}","linenames":"{地铁8号线}","lat":39.813647100700003,"lng":116.39589599200001,"OBJECTID":143,"北京市2":151,"X":116.39589599200001,"Y":39.813647101000001,"LongNTL_20":21.5}},{"type":"Feature","id":143,"geometry":{"type":"Point","coordinates":[116.39408453700003,39.850510826000061]},"properties":{"FID":143,"stationid":152,"stationnam":"HAIHUTUN","count":122625,"站点中":"海户屯","刷卡排":297,"lineids":"{7}","linenames":"{地铁8号线}","lat":39.850510826099999,"lng":116.394084537,"OBJECTID":144,"北京市2":152,"X":116.394084537,"Y":39.850510825999997,"LongNTL_20":41.560001373291016}},{"type":"Feature","id":144,"geometry":{"type":"Point","coordinates":[116.41249371600009,39.797822904000043]},"properties":{"FID":144,"stationid":153,"stationnam":"HUOJIAN WANYUAN","count":118524,"站点中":"火箭万源","刷卡排":299,"lineids":"{7}","linenames":"{地铁8号线}","lat":39.797822904,"lng":116.412493716,"OBJECTID":145,"北京市2":153,"X":116.412493716,"Y":39.797822904,"LongNTL_20":22.284999847412109}},{"type":"Feature","id":145,"geometry":{"type":"Point","coordinates":[116.41748830100005,39.78392352700007]},"properties":{"FID":145,"stationid":154,"stationnam":"WUFUTANG","count":95042,"站点中":"五福堂","刷卡排":306,"lineids":"{7}","linenames":"{地铁8号线}","lat":39.783923526599999,"lng":116.41748830100001,"OBJECTID":146,"北京市2":154,"X":116.41748830100001,"Y":39.783923526999999,"LongNTL_20":37.529998779296875}},{"type":"Feature","id":146,"geometry":{"type":"Point","coordinates":[116.44287191500007,39.759524522000049]},"properties":{"FID":146,"stationid":155,"stationnam":"YINGHAI","count":184243,"站点中":"瀛海","刷卡排":276,"lineids":"{7}","linenames":"{地铁8号线}","lat":39.759524521800003,"lng":116.442871915,"OBJECTID":147,"北京市2":155,"X":116.442871915,"Y":39.759524522,"LongNTL_20":18.639999389648438}},{"type":"Feature","id":147,"geometry":{"type":"Point","coordinates":[116.40308137300008,39.803733632000046]},"properties":{"FID":147,"stationid":156,"stationnam":"DONGGAODI","count":69637,"站点中":"东高地","刷卡排":312,"lineids":"{7}","linenames":"{地铁8号线}","lat":39.803733632099998,"lng":116.40308137300001,"OBJECTID":148,"北京市2":156,"X":116.40308137300001,"Y":39.803733631999997,"LongNTL_20":22.860000610351562}},{"type":"Feature","id":148,"geometry":{"type":"Point","coordinates":[116.393351424,39.865025697000078]},"properties":{"FID":148,"stationid":157,"stationnam":"YONGDINGMENWAI","count":324076,"站点中":"永定门外","刷卡排":227,"lineids":"{7,12}","linenames":"{地铁8号线,地铁14号线}","lat":39.865025697,"lng":116.393351424,"OBJECTID":149,"北京市2":157,"X":116.393351424,"Y":39.865025697,"LongNTL_20":37.494998931884766}},{"type":"Feature","id":149,"geometry":{"type":"Point","coordinates":[116.35696011300001,40.079574489000038]},"properties":{"FID":149,"stationid":158,"stationnam":"HUILONGGUAN DONGDAJIE","count":844398,"站点中":"回龙观东大街","刷卡排":74,"lineids":"{7}","linenames":"{地铁8号线}","lat":40.079574489499997,"lng":116.356960113,"OBJECTID":150,"北京市2":158,"X":116.356960113,"Y":40.079574489000002,"LongNTL_20":39.645000457763672}},{"type":"Feature","id":150,"geometry":{"type":"Point","coordinates":[116.40463516500006,39.922834776000059]},"properties":{"FID":150,"stationid":159,"stationnam":"NATIONAL ART MUSEUM","count":237843,"站点中":"中国美术馆","刷卡排":260,"lineids":"{7}","linenames":"{地铁8号线}","lat":39.922834776000002,"lng":116.404635165,"OBJECTID":151,"北京市2":159,"X":116.404635165,"Y":39.922834776000002,"LongNTL_20":40.645000457763672}},{"type":"Feature","id":151,"geometry":{"type":"Point","coordinates":[116.38753656900008,39.984577785000056]},"properties":{"FID":151,"stationid":160,"stationnam":"OLYMPIC SPORTS CENTER","count":263059,"站点中":"奥体中心","刷卡排":248,"lineids":"{7}","linenames":"{地铁8号线}","lat":39.984577785200003,"lng":116.38753656900001,"OBJECTID":152,"北京市2":160,"X":116.38753656900001,"Y":39.984577784999999,"LongNTL_20":78.444999694824219}},{"type":"Feature","id":152,"geometry":{"type":"Point","coordinates":[116.36636359200008,40.020559239000079]},"properties":{"FID":152,"stationid":161,"stationnam":"LINCUIQIAO","count":297460,"站点中":"林萃桥","刷卡排":242,"lineids":"{7}","linenames":"{地铁8号线}","lat":40.020559239199997,"lng":116.366363592,"OBJECTID":153,"北京市2":161,"X":116.366363592,"Y":40.020559239000001,"LongNTL_20":36.020000457763672}},{"type":"Feature","id":153,"geometry":{"type":"Point","coordinates":[116.3454644520001,40.045558415000073]},"properties":{"FID":153,"stationid":162,"stationnam":"XIXIAOKOU","count":398984,"站点中":"西小口","刷卡排":204,"lineids":"{7}","linenames":"{地铁8号线}","lat":40.045558414799999,"lng":116.345464452,"OBJECTID":154,"北京市2":162,"X":116.345464452,"Y":40.045558415000002,"LongNTL_20":46.044998168945312}},{"type":"Feature","id":154,"geometry":{"type":"Point","coordinates":[116.34841894200008,40.036502326000061]},"properties":{"FID":154,"stationid":163,"stationnam":"YONGTAIZHUANG","count":639313,"站点中":"永泰庄","刷卡排":125,"lineids":"{7}","linenames":"{地铁8号线}","lat":40.036502325900003,"lng":116.348418942,"OBJECTID":155,"北京市2":163,"X":116.348418942,"Y":40.036502325999997,"LongNTL_20":44.875}},{"type":"Feature","id":155,"geometry":{"type":"Point","coordinates":[116.38638278900009,40.008478886000034]},"properties":{"FID":155,"stationid":164,"stationnam":"FOREST PARK SOUTH GATE","count":302522,"站点中":"森林公园南门","刷卡排":241,"lineids":"{7}","linenames":"{地铁8号线}","lat":40.008478886100001,"lng":116.386382789,"OBJECTID":156,"北京市2":164,"X":116.386382789,"Y":40.008478885999999,"LongNTL_20":41.075000762939453}},{"type":"Feature","id":156,"geometry":{"type":"Point","coordinates":[116.38795848000007,39.967137450000052]},"properties":{"FID":156,"stationid":165,"stationnam":"ANHUAQIAO","count":480783,"站点中":"安华桥","刷卡排":177,"lineids":"{7}","linenames":"{地铁8号线}","lat":39.967137449699997,"lng":116.38795847999999,"OBJECTID":157,"北京市2":165,"X":116.38795847999999,"Y":39.967137450000003,"LongNTL_20":45.669998168945312}},{"type":"Feature","id":157,"geometry":{"type":"Point","coordinates":[116.38891508900008,39.95583847100005]},"properties":{"FID":157,"stationid":166,"stationnam":"ANDELIBEIJIE","count":207036,"站点中":"安德里北街","刷卡排":271,"lineids":"{7}","linenames":"{地铁8号线}","lat":39.955838470700002,"lng":116.38891508899999,"OBJECTID":158,"北京市2":166,"X":116.38891508899999,"Y":39.955838471,"LongNTL_20":27.514999389648438}},{"type":"Feature","id":158,"geometry":{"type":"Point","coordinates":[116.34418831100004,40.088696790000085]},"properties":{"FID":158,"stationid":167,"stationnam":"PINGXIFU","count":437924,"站点中":"平西府","刷卡排":191,"lineids":"{7}","linenames":"{地铁8号线}","lat":40.088696790199997,"lng":116.344188311,"OBJECTID":159,"北京市2":167,"X":116.344188311,"Y":40.08869679,"LongNTL_20":26.479999542236328}},{"type":"Feature","id":159,"geometry":{"type":"Point","coordinates":[116.38994259600008,39.936236793000035]},"properties":{"FID":159,"stationid":168,"stationnam":"SHENSHAHAI","count":304705,"站点中":"什刹海","刷卡排":237,"lineids":"{7}","linenames":"{地铁8号线}","lat":39.936236793200003,"lng":116.389942596,"OBJECTID":160,"北京市2":168,"X":116.389942596,"Y":39.936236792999999,"LongNTL_20":28.940000534057617}},{"type":"Feature","id":160,"geometry":{"type":"Point","coordinates":[116.32099745400001,40.086651301000074]},"properties":{"FID":160,"stationid":169,"stationnam":"YUZHILU","count":240668,"站点中":"育知路","刷卡排":258,"lineids":"{7}","linenames":"{地铁8号线}","lat":40.086651300900002,"lng":116.32099745399999,"OBJECTID":161,"北京市2":169,"X":116.32099745399999,"Y":40.086651301000003,"LongNTL_20":18.969999313354492}},{"type":"Feature","id":161,"geometry":{"type":"Point","coordinates":[116.34097946300005,40.059006681000085]},"properties":{"FID":161,"stationid":170,"stationnam":"YUXIN","count":698265,"站点中":"育新","刷卡排":106,"lineids":"{7}","linenames":"{地铁8号线}","lat":40.059006680700001,"lng":116.340979463,"OBJECTID":162,"北京市2":170,"X":116.340979463,"Y":40.059006681,"LongNTL_20":25.129999160766602}},{"type":"Feature","id":162,"geometry":{"type":"Point","coordinates":[116.38799995600004,39.975752578000083]},"properties":{"FID":162,"stationid":171,"stationnam":"BEITUCHENG","count":418307,"站点中":"北土城","刷卡排":197,"lineids":"{7,9}","linenames":"{地铁8号线,地铁10号线}","lat":39.975752577500003,"lng":116.387999956,"OBJECTID":163,"北京市2":171,"X":116.387999956,"Y":39.975752577999998,"LongNTL_20":44.209999084472656}},{"type":"Feature","id":163,"geometry":{"type":"Point","coordinates":[116.353892696,40.069889670000066]},"properties":{"FID":163,"stationid":172,"stationnam":"HUOYING","count":1339899,"站点中":"霍营","刷卡排":20,"lineids":"{7,11}","linenames":"{地铁8号线,地铁13号线}","lat":40.069889669600002,"lng":116.353892696,"OBJECTID":164,"北京市2":172,"X":116.353892696,"Y":40.069889670000002,"LongNTL_20":25.799999237060547}},{"type":"Feature","id":164,"geometry":{"type":"Point","coordinates":[116.38610121900001,40.000201244000039]},"properties":{"FID":164,"stationid":173,"stationnam":"OLYMPIC PARK","count":689252,"站点中":"奥林匹克公园","刷卡排":109,"lineids":"{7,13}","linenames":"{地铁8号线,地铁15号线}","lat":40.000201243500001,"lng":116.386101219,"OBJECTID":165,"北京市2":173,"X":116.386101219,"Y":40.000201244000003,"LongNTL_20":69.824996948242188}},{"type":"Feature","id":165,"geometry":{"type":"Point","coordinates":[116.3074629780001,40.103099856000085]},"properties":{"FID":165,"stationid":174,"stationnam":"ZHUXINZHUANG","count":835481,"站点中":"朱辛庄","刷卡排":75,"lineids":"{7,18}","linenames":"{地铁8号线,地铁昌平线}","lat":40.103099855799996,"lng":116.307462978,"OBJECTID":166,"北京市2":174,"X":116.307462978,"Y":40.103099856,"LongNTL_20":24.940000534057617}},{"type":"Feature","id":166,"geometry":{"type":"Point","coordinates":[116.31965766100006,39.922662965000086]},"properties":{"FID":166,"stationid":175,"stationnam":"BAIDUIZI","count":512540,"站点中":"白堆子","刷卡排":168,"lineids":"{8}","linenames":"{地铁9号线}","lat":39.922662965199997,"lng":116.31965766099999,"OBJECTID":167,"北京市2":175,"X":116.31965766099999,"Y":39.922662965000001,"LongNTL_20":31.979999542236328}},{"type":"Feature","id":167,"geometry":{"type":"Point","coordinates":[116.29132907100006,39.831198978000089]},"properties":{"FID":167,"stationid":176,"stationnam":"KEYILU","count":381641,"站点中":"科怡路","刷卡排":210,"lineids":"{8}","linenames":"{地铁9号线}","lat":39.831198978099998,"lng":116.29132907100001,"OBJECTID":168,"北京市2":176,"X":116.29132907100001,"Y":39.831198978000003,"LongNTL_20":42.930000305175781}},{"type":"Feature","id":168,"geometry":{"type":"Point","coordinates":[116.30920652200007,39.88604319500007]},"properties":{"FID":168,"stationid":177,"stationnam":"LIULIQIAODONG","count":1050506,"站点中":"六里桥东","刷卡排":39,"lineids":"{8}","linenames":"{地铁9号线}","lat":39.886043194899997,"lng":116.309206522,"OBJECTID":169,"北京市2":177,"X":116.309206522,"Y":39.886043194999999,"LongNTL_20":48.615001678466797}},{"type":"Feature","id":169,"geometry":{"type":"Point","coordinates":[116.29037205100008,39.839720643000078]},"properties":{"FID":169,"stationid":178,"stationnam":"FENGTAI NANLU","count":426002,"站点中":"丰台南路","刷卡排":193,"lineids":"{8}","linenames":"{地铁9号线}","lat":39.839720643,"lng":116.29037205100001,"OBJECTID":170,"北京市2":178,"X":116.29037205100001,"Y":39.839720643,"LongNTL_20":36.904998779296875}},{"type":"Feature","id":170,"geometry":{"type":"Point","coordinates":[116.29116804500006,39.823984339000049]},"properties":{"FID":170,"stationid":179,"stationnam":"FENGTAI KEJIYUAN","count":983967,"站点中":"丰台科技园","刷卡排":49,"lineids":"{8}","linenames":"{地铁9号线}","lat":39.823984339299997,"lng":116.29116804500001,"OBJECTID":171,"北京市2":179,"X":116.29116804500001,"Y":39.823984338999999,"LongNTL_20":41.650001525878906}},{"type":"Feature","id":171,"geometry":{"type":"Point","coordinates":[116.28781459000004,39.853910241000051]},"properties":{"FID":171,"stationid":180,"stationnam":"FENGTAI DONGDAJIE","count":274149,"站点中":"丰台东大街","刷卡排":247,"lineids":"{8}","linenames":"{地铁9号线}","lat":39.853910240700003,"lng":116.28781459,"OBJECTID":172,"北京市2":180,"X":116.28781459,"Y":39.853910241000001,"LongNTL_20":27.495000839233398}},{"type":"Feature","id":172,"geometry":{"type":"Point","coordinates":[116.2968085330001,39.87884203200008]},"properties":{"FID":172,"stationid":181,"stationnam":"LIULIQIAO","count":683910,"站点中":"六里桥","刷卡排":111,"lineids":"{8,9}","linenames":"{地铁9号线,地铁10号线}","lat":39.878842032500003,"lng":116.296808533,"OBJECTID":173,"北京市2":181,"X":116.296808533,"Y":39.878842032000001,"LongNTL_20":47.775001525878906}},{"type":"Feature","id":173,"geometry":{"type":"Point","coordinates":[116.288063663,39.865500635000046]},"properties":{"FID":173,"stationid":182,"stationnam":"QILIZHUANG","count":549568,"站点中":"七里庄","刷卡排":153,"lineids":"{8,12}","linenames":"{地铁9号线,地铁14号线}","lat":39.865500635300002,"lng":116.288063663,"OBJECTID":174,"北京市2":182,"X":116.288063663,"Y":39.865500634999997,"LongNTL_20":51.810001373291016}},{"type":"Feature","id":174,"geometry":{"type":"Point","coordinates":[116.29598787800001,39.813280583000051]},"properties":{"FID":174,"stationid":183,"stationnam":"GUOGONGZHUANG","count":313182,"站点中":"郭公庄","刷卡排":232,"lineids":"{8,20}","linenames":"{地铁9号线,地铁房山线}","lat":39.813280583100003,"lng":116.29598787800001,"OBJECTID":175,"北京市2":183,"X":116.29598787800001,"Y":39.813280583000001,"LongNTL_20":31.524999618530273}},{"type":"Feature","id":175,"geometry":{"type":"Point","coordinates":[116.29170708700008,39.922182942000063]},"properties":{"FID":175,"stationid":184,"stationnam":"XIDIAOYUTAI","count":618790,"站点中":"西钓鱼台","刷卡排":133,"lineids":"{9}","linenames":"{地铁10号线}","lat":39.922182942200003,"lng":116.29170708700001,"OBJECTID":176,"北京市2":184,"X":116.29170708700001,"Y":39.922182941999999,"LongNTL_20":32.834999084472656}},{"type":"Feature","id":176,"geometry":{"type":"Point","coordinates":[116.39383481000004,39.843326438000076]},"properties":{"FID":176,"stationid":185,"stationnam":"DAHONGMEN","count":513294,"站点中":"大红门","刷卡排":167,"lineids":"{9}","linenames":"{地铁10号线}","lat":39.843326437800002,"lng":116.39383481,"OBJECTID":177,"北京市2":185,"X":116.39383481,"Y":39.843326437999998,"LongNTL_20":33.959999084472656}},{"type":"Feature","id":177,"geometry":{"type":"Point","coordinates":[116.45555230700006,39.915653929000086]},"properties":{"FID":177,"stationid":186,"stationnam":"JINTAIXIZHAO","count":930929,"站点中":"金台夕照","刷卡排":58,"lineids":"{9}","linenames":"{地铁10号线}","lat":39.915653928899999,"lng":116.455552307,"OBJECTID":178,"北京市2":186,"X":116.455552307,"Y":39.915653929000001,"LongNTL_20":78.489997863769531}},{"type":"Feature","id":178,"geometry":{"type":"Point","coordinates":[116.28799166800002,39.957345501000077]},"properties":{"FID":178,"stationid":187,"stationnam":"CHANGCHUNQIAO","count":655404,"站点中":"长春桥","刷卡排":115,"lineids":"{9}","linenames":"{地铁10号线}","lat":39.957345500999999,"lng":116.287991668,"OBJECTID":179,"北京市2":187,"X":116.287991668,"Y":39.957345500999999,"LongNTL_20":44.174999237060547}},{"type":"Feature","id":179,"geometry":{"type":"Point","coordinates":[116.44133692600008,39.971226760000036]},"properties":{"FID":179,"stationid":188,"stationnam":"TAIYANGGONG","count":797530,"站点中":"太阳宫","刷卡排":86,"lineids":"{9}","linenames":"{地铁10号线}","lat":39.971226759899999,"lng":116.44133692600001,"OBJECTID":180,"北京市2":188,"X":116.44133692600001,"Y":39.97122676,"LongNTL_20":49.330001831054688}},{"type":"Feature","id":180,"geometry":{"type":"Point","coordinates":[116.34806805000005,39.974923790000048]},"properties":{"FID":180,"stationid":189,"stationnam":"XITUCHENG","count":1069425,"站点中":"西土城","刷卡排":37,"lineids":"{9}","linenames":"{地铁10号线}","lat":39.974923789499996,"lng":116.34806804999999,"OBJECTID":181,"北京市2":189,"X":116.34806804999999,"Y":39.974923789999998,"LongNTL_20":44.419998168945312}},{"type":"Feature","id":181,"geometry":{"type":"Point","coordinates":[116.39971841900001,39.975577476000069]},"properties":{"FID":181,"stationid":190,"stationnam":"ANZHENMEN","count":780433,"站点中":"安贞门","刷卡排":92,"lineids":"{9}","linenames":"{地铁10号线}","lat":39.975577475599998,"lng":116.399718419,"OBJECTID":182,"北京市2":190,"X":116.399718419,"Y":39.975577475999998,"LongNTL_20":44.740001678466797}},{"type":"Feature","id":182,"geometry":{"type":"Point","coordinates":[116.45523485000001,39.883042319000083]},"properties":{"FID":182,"stationid":191,"stationnam":"JINGSONG","count":1014575,"站点中":"劲松","刷卡排":43,"lineids":"{9}","linenames":"{地铁10号线}","lat":39.883042318900003,"lng":116.45523485,"OBJECTID":183,"北京市2":191,"X":116.45523485,"Y":39.883042318999998,"LongNTL_20":43.650001525878906}},{"type":"Feature","id":183,"geometry":{"type":"Point","coordinates":[116.44759624300002,39.850874966000049]},"properties":{"FID":183,"stationid":192,"stationnam":"FENZHONGSI","count":148445,"站点中":"分钟寺","刷卡排":289,"lineids":"{9}","linenames":"{地铁10号线}","lat":39.850874965599999,"lng":116.44759624300001,"OBJECTID":184,"北京市2":192,"X":116.44759624300001,"Y":39.850874965999999,"LongNTL_20":24.010000228881836}},{"type":"Feature","id":184,"geometry":{"type":"Point","coordinates":[116.45602234800003,39.940011644000037]},"properties":{"FID":184,"stationid":193,"stationnam":"ALGRICULTURAL EXHIBITION CENTER","count":217224,"站点中":"农业展览馆","刷卡排":265,"lineids":"{9}","linenames":"{地铁10号线}","lat":39.940011643699997,"lng":116.456022348,"OBJECTID":185,"北京市2":193,"X":116.456022348,"Y":39.940011644000002,"LongNTL_20":53.349998474121094}},{"type":"Feature","id":185,"geometry":{"type":"Point","coordinates":[116.29825631300002,39.857327015000067]},"properties":{"FID":185,"stationid":194,"stationnam":"NIWA","count":350070,"站点中":"泥洼","刷卡排":218,"lineids":"{9}","linenames":"{地铁10号线}","lat":39.857327015000003,"lng":116.298256313,"OBJECTID":186,"北京市2":194,"X":116.298256313,"Y":39.857327015000003,"LongNTL_20":47.764999389648438}},{"type":"Feature","id":186,"geometry":{"type":"Point","coordinates":[116.3042258270001,39.896810543000072]},"properties":{"FID":186,"stationid":195,"stationnam":"LIANHUAQIAO","count":303681,"站点中":"莲花桥","刷卡排":238,"lineids":"{9}","linenames":"{地铁10号线}","lat":39.896810543299999,"lng":116.304225827,"OBJECTID":187,"北京市2":195,"X":116.304225827,"Y":39.896810543000001,"LongNTL_20":50.715000152587891}},{"type":"Feature","id":187,"geometry":{"type":"Point","coordinates":[116.375126034,39.975235649000069]},"properties":{"FID":187,"stationid":196,"stationnam":"JIANDEMEN","count":788846,"站点中":"健德门","刷卡排":89,"lineids":"{9}","linenames":"{地铁10号线}","lat":39.975235648599998,"lng":116.375126034,"OBJECTID":188,"北京市2":196,"X":116.375126034,"Y":39.975235648999998,"LongNTL_20":42.009998321533203}},{"type":"Feature","id":188,"geometry":{"type":"Point","coordinates":[116.3141109180001,39.843513152000071]},"properties":{"FID":188,"stationid":197,"stationnam":"CAPITAL UNIVERSITY OF ECONOMICS & BUSINESS","count":607393,"站点中":"首经贸","刷卡排":135,"lineids":"{9,20}","linenames":"{地铁10号线,地铁房山线}","lat":39.843513151499998,"lng":116.314110918,"OBJECTID":189,"北京市2":197,"X":116.314110918,"Y":39.843513152,"LongNTL_20":33.150001525878906}},{"type":"Feature","id":189,"geometry":{"type":"Point","coordinates":[116.455986607,39.948027393000075]},"properties":{"FID":189,"stationid":198,"stationnam":"LIANGMAQIAO","count":1192899,"站点中":"亮马桥","刷卡排":27,"lineids":"{9}","linenames":"{地铁10号线}","lat":39.948027393099999,"lng":116.455986607,"OBJECTID":190,"北京市2":198,"X":116.455986607,"Y":39.948027392999997,"LongNTL_20":71.05999755859375}},{"type":"Feature","id":190,"geometry":{"type":"Point","coordinates":[116.441524028,39.844490724000082]},"properties":{"FID":190,"stationid":199,"stationnam":"CHENGSHOUSI","count":630233,"站点中":"成寿寺","刷卡排":129,"lineids":"{9}","linenames":"{地铁10号线}","lat":39.844490724400004,"lng":116.441524028,"OBJECTID":191,"北京市2":199,"X":116.441524028,"Y":39.844490724000003,"LongNTL_20":28.030000686645508}},{"type":"Feature","id":191,"geometry":{"type":"Point","coordinates":[116.30019183100001,39.974254931000075]},"properties":{"FID":191,"stationid":200,"stationnam":"SUZHOU JIE","count":1116811,"站点中":"苏州街","刷卡排":32,"lineids":"{9,14}","linenames":"{地铁10号线,地铁16号线}","lat":39.974254930800001,"lng":116.30019183100001,"OBJECTID":192,"北京市2":200,"X":116.30019183100001,"Y":39.974254930999997,"LongNTL_20":49.200000762939453}},{"type":"Feature","id":192,"geometry":{"type":"Point","coordinates":[116.326780106,39.84313110800008]},"properties":{"FID":192,"stationid":201,"stationnam":"JIJIAMIAO","count":200727,"站点中":"纪家庙","刷卡排":274,"lineids":"{9}","linenames":"{地铁10号线}","lat":39.843131107700003,"lng":116.326780106,"OBJECTID":193,"北京市2":201,"X":116.326780106,"Y":39.843131108000001,"LongNTL_20":30.725000381469727}},{"type":"Feature","id":193,"geometry":{"type":"Point","coordinates":[116.29892030600001,39.848666129000037]},"properties":{"FID":193,"stationid":202,"stationnam":"FENGTAI RAILWAY STATION","count":325622,"站点中":"丰台站","刷卡排":225,"lineids":"{9}","linenames":"{地铁10号线}","lat":39.8486661293,"lng":116.298920306,"OBJECTID":194,"北京市2":202,"X":116.298920306,"Y":39.848666129000001,"LongNTL_20":50.340000152587891}},{"type":"Feature","id":194,"geometry":{"type":"Point","coordinates":[116.454962894,39.874551041000075]},"properties":{"FID":194,"stationid":203,"stationnam":"PANJIAYUAN","count":886854,"站点中":"潘家园","刷卡排":67,"lineids":"{9}","linenames":"{地铁10号线}","lat":39.874551040900002,"lng":116.454962894,"OBJECTID":195,"北京市2":203,"X":116.454962894,"Y":39.874551040999997,"LongNTL_20":38.294998168945312}},{"type":"Feature","id":195,"geometry":{"type":"Point","coordinates":[116.40792142100008,39.844450406000078]},"properties":{"FID":195,"stationid":204,"stationnam":"SHILIUZHUANG","count":537311,"站点中":"石榴庄","刷卡排":160,"lineids":"{9}","linenames":"{地铁10号线}","lat":39.844450406100002,"lng":116.407921421,"OBJECTID":196,"北京市2":204,"X":116.407921421,"Y":39.844450406,"LongNTL_20":32.224998474121094}},{"type":"Feature","id":196,"geometry":{"type":"Point","coordinates":[116.32332846400004,39.975037635000035]},"properties":{"FID":196,"stationid":205,"stationnam":"ZHICHUNLI","count":512112,"站点中":"知春里","刷卡排":169,"lineids":"{9}","linenames":"{地铁10号线}","lat":39.975037634899998,"lng":116.323328464,"OBJECTID":197,"北京市2":205,"X":116.323328464,"Y":39.975037635,"LongNTL_20":39.525001525878906}},{"type":"Feature","id":197,"geometry":{"type":"Point","coordinates":[116.36365190200002,39.975396792000083]},"properties":{"FID":197,"stationid":206,"stationnam":"MUDANYUAN","count":948049,"站点中":"牡丹园","刷卡排":57,"lineids":"{9,16}","linenames":"{地铁10号线,地铁19号线}","lat":39.975396792300003,"lng":116.363651902,"OBJECTID":198,"北京市2":206,"X":116.363651902,"Y":39.975396791999998,"LongNTL_20":40.819999694824219}},{"type":"Feature","id":198,"geometry":{"type":"Point","coordinates":[116.283147482,39.964824305000036]},"properties":{"FID":198,"stationid":207,"stationnam":"HUOQIYING","count":248499,"站点中":"火器营","刷卡排":253,"lineids":"{9}","linenames":"{地铁10号线}","lat":39.9648243046,"lng":116.283147482,"OBJECTID":199,"北京市2":207,"X":116.283147482,"Y":39.964824305,"LongNTL_20":33.740001678466797}},{"type":"Feature","id":199,"geometry":{"type":"Point","coordinates":[116.45558943800006,39.932406699000069]},"properties":{"FID":199,"stationid":208,"stationnam":"TUANJIEHU","count":1318394,"站点中":"团结湖","刷卡排":21,"lineids":"{9}","linenames":"{地铁10号线}","lat":39.932406698599998,"lng":116.455589438,"OBJECTID":200,"北京市2":208,"X":116.455589438,"Y":39.932406698999998,"LongNTL_20":54.340000152587891}},{"type":"Feature","id":200,"geometry":{"type":"Point","coordinates":[116.28785378800001,39.946555724000063]},"properties":{"FID":200,"stationid":209,"stationnam":"CHEDAOGOU","count":541092,"站点中":"车道沟","刷卡排":157,"lineids":"{9}","linenames":"{地铁10号线}","lat":39.946555723700001,"lng":116.28785378800001,"OBJECTID":201,"北京市2":209,"X":116.28785378800001,"Y":39.946555724,"LongNTL_20":30.600000381469727}},{"type":"Feature","id":201,"geometry":{"type":"Point","coordinates":[116.3798927680001,39.843825135000088]},"properties":{"FID":201,"stationid":210,"stationnam":"JIAOMEN EAST","count":789599,"站点中":"角门东","刷卡排":88,"lineids":"{9}","linenames":"{地铁10号线}","lat":39.843825134799999,"lng":116.379892768,"OBJECTID":202,"北京市2":210,"X":116.379892768,"Y":39.843825135000003,"LongNTL_20":36.860000610351562}},{"type":"Feature","id":202,"geometry":{"type":"Point","coordinates":[116.43058607700004,39.976003970000079]},"properties":{"FID":202,"stationid":211,"stationnam":"SHAOYAOJU","count":949274,"站点中":"芍药居","刷卡排":55,"lineids":"{9,11}","linenames":"{地铁10号线,地铁13号线}","lat":39.976003969700002,"lng":116.430586077,"OBJECTID":203,"北京市2":211,"X":116.430586077,"Y":39.976003970000001,"LongNTL_20":44.360000610351562}},{"type":"Feature","id":203,"geometry":{"type":"Point","coordinates":[116.33481308,39.975069811000083]},"properties":{"FID":203,"stationid":212,"stationnam":"ZHICHUNLU","count":948499,"站点中":"知春路","刷卡排":56,"lineids":"{9,11}","linenames":"{地铁10号线,地铁13号线}","lat":39.975069811300003,"lng":116.33481308,"OBJECTID":204,"北京市2":212,"X":116.33481308,"Y":39.975069810999997,"LongNTL_20":35.090000152587891}},{"type":"Feature","id":204,"geometry":{"type":"Point","coordinates":[116.45301393900002,39.864182423000045]},"properties":{"FID":204,"stationid":213,"stationnam":"SHILIHE","count":1634345,"站点中":"十里河","刷卡排":14,"lineids":"{9,12,15}","linenames":"{地铁10号线,地铁14号线,地铁17号线}","lat":39.864182422699997,"lng":116.453013939,"OBJECTID":205,"北京市2":213,"X":116.453013939,"Y":39.864182423000003,"LongNTL_20":53.599998474121094}},{"type":"Feature","id":205,"geometry":{"type":"Point","coordinates":[116.29776839500005,39.86487896400007]},"properties":{"FID":205,"stationid":214,"stationnam":"XIJU","count":570357,"站点中":"西局","刷卡排":148,"lineids":"{9,12}","linenames":"{地铁10号线,地铁14号线}","lat":39.864878964100001,"lng":116.29776839500001,"OBJECTID":206,"北京市2":214,"X":116.29776839500001,"Y":39.864878963999999,"LongNTL_20":49.869998931884766}},{"type":"Feature","id":206,"geometry":{"type":"Point","coordinates":[116.34337306400005,39.845235953000042]},"properties":{"FID":206,"stationid":215,"stationnam":"CAOQIAO","count":452635,"站点中":"草桥","刷卡排":186,"lineids":"{9,16,19}","linenames":"{地铁10号线,地铁19号线,大兴机场线}","lat":39.845235953299998,"lng":116.34337306400001,"OBJECTID":207,"北京市2":215,"X":116.34337306400001,"Y":39.845235953,"LongNTL_20":55.409999847412109}},{"type":"Feature","id":207,"geometry":{"type":"Point","coordinates":[116.45078877800006,39.95988324800004]},"properties":{"FID":207,"stationid":216,"stationnam":"SANYUANQIAO","count":1567626,"站点中":"三元桥","刷卡排":18,"lineids":"{9,21}","linenames":"{地铁10号线,首都机场线}","lat":39.959883248200001,"lng":116.450788778,"OBJECTID":208,"北京市2":216,"X":116.450788778,"Y":39.959883247999997,"LongNTL_20":53.110000610351562}},{"type":"Feature","id":208,"geometry":{"type":"Point","coordinates":[116.28777981300004,39.972931955000035]},"properties":{"FID":208,"stationid":217,"stationnam":"BAGOU","count":918381,"站点中":"巴沟","刷卡排":60,"lineids":"{9,22}","linenames":"{地铁10号线,地铁西郊线}","lat":39.972931954899998,"lng":116.287779813,"OBJECTID":209,"北京市2":217,"X":116.287779813,"Y":39.972931955,"LongNTL_20":34.755001068115234}},{"type":"Feature","id":209,"geometry":{"type":"Point","coordinates":[116.31361228100002,40.069517368000049]},"properties":{"FID":209,"stationid":218,"stationnam":"LONGZE","count":1002120,"站点中":"龙泽","刷卡排":46,"lineids":"{11}","linenames":"{地铁13号线}","lat":40.069517367800003,"lng":116.313612281,"OBJECTID":210,"北京市2":218,"X":116.313612281,"Y":40.069517368,"LongNTL_20":42.209999084472656}},{"type":"Feature","id":210,"geometry":{"type":"Point","coordinates":[116.314153766,40.031580922000046]},"properties":{"FID":210,"stationid":219,"stationnam":"SHANGDI","count":1012932,"站点中":"上地","刷卡排":44,"lineids":"{11}","linenames":"{地铁13号线}","lat":40.031580921600003,"lng":116.314153766,"OBJECTID":211,"北京市2":219,"X":116.314153766,"Y":40.031580922000003,"LongNTL_20":29.965000152587891}},{"type":"Feature","id":211,"geometry":{"type":"Point","coordinates":[116.33162896600004,39.991575049000062]},"properties":{"FID":211,"stationid":220,"stationnam":"WUDAOKOU","count":1312510,"站点中":"五道口","刷卡排":22,"lineids":"{11}","linenames":"{地铁13号线}","lat":39.9915750491,"lng":116.331628966,"OBJECTID":212,"北京市2":220,"X":116.331628966,"Y":39.991575048999998,"LongNTL_20":46.930000305175781}},{"type":"Feature","id":212,"geometry":{"type":"Point","coordinates":[116.42561025700002,39.967117734000055]},"properties":{"FID":212,"stationid":221,"stationnam":"GUANGXIMEN","count":386104,"站点中":"光熙门","刷卡排":206,"lineids":"{11}","linenames":"{地铁13号线}","lat":39.9671177345,"lng":116.425610257,"OBJECTID":213,"北京市2":221,"X":116.425610257,"Y":39.967117733999999,"LongNTL_20":48.720001220703125}},{"type":"Feature","id":213,"geometry":{"type":"Point","coordinates":[116.42848588100003,40.041615880000052]},"properties":{"FID":213,"stationid":222,"stationnam":"BEIYUAN","count":636409,"站点中":"北苑","刷卡排":127,"lineids":"{11}","linenames":"{地铁13号线}","lat":40.041615880199998,"lng":116.428485881,"OBJECTID":214,"北京市2":222,"X":116.428485881,"Y":40.041615880000002,"LongNTL_20":31.069999694824219}},{"type":"Feature","id":214,"geometry":{"type":"Point","coordinates":[116.32988535200002,40.069433998000079]},"properties":{"FID":214,"stationid":223,"stationnam":"HUILONGGUAN","count":1061518,"站点中":"回龙观","刷卡排":38,"lineids":"{11}","linenames":"{地铁13号线}","lat":40.069433997899999,"lng":116.32988535200001,"OBJECTID":215,"北京市2":223,"X":116.32988535200001,"Y":40.069433998000001,"LongNTL_20":33.775001525878906}},{"type":"Feature","id":215,"geometry":{"type":"Point","coordinates":[116.33901873100001,39.965021480000075]},"properties":{"FID":215,"stationid":224,"stationnam":"DAZHONGSI","count":589688,"站点中":"大钟寺","刷卡排":144,"lineids":"{11}","linenames":"{地铁13号线}","lat":39.965021479800001,"lng":116.339018731,"OBJECTID":216,"北京市2":224,"X":116.339018731,"Y":39.965021479999997,"LongNTL_20":38.005001068115234}},{"type":"Feature","id":216,"geometry":{"type":"Point","coordinates":[116.426527502,39.956771303000039]},"properties":{"FID":216,"stationid":225,"stationnam":"LIUFANG","count":466021,"站点中":"柳芳","刷卡排":181,"lineids":"{11}","linenames":"{地铁13号线}","lat":39.956771302900002,"lng":116.426527502,"OBJECTID":217,"北京市2":225,"X":116.426527502,"Y":39.956771302999996,"LongNTL_20":33.229999542236328}},{"type":"Feature","id":217,"geometry":{"type":"Point","coordinates":[116.44284152600005,39.994185254000058]},"properties":{"FID":217,"stationid":227,"stationnam":"WANGJINGXI","count":768673,"站点中":"望京西","刷卡排":94,"lineids":"{11,13}","linenames":"{地铁13号线,地铁15号线}","lat":39.994185253799998,"lng":116.442841526,"OBJECTID":218,"北京市2":227,"X":116.442841526,"Y":39.994185254000001,"LongNTL_20":43.290000915527344}},{"type":"Feature","id":218,"geometry":{"type":"Point","coordinates":[116.30000328100004,40.05168701100007]},"properties":{"FID":218,"stationid":228,"stationnam":"XI'ERQI","count":2174467,"站点中":"西二旗","刷卡排":6,"lineids":"{11,18}","linenames":"{地铁13号线,地铁昌平线}","lat":40.0516870107,"lng":116.300003281,"OBJECTID":219,"北京市2":228,"X":116.300003281,"Y":40.051687010999999,"LongNTL_20":31.979999542236328}},{"type":"Feature","id":219,"geometry":{"type":"Point","coordinates":[116.4839675070001,39.969711248000067]},"properties":{"FID":219,"stationid":229,"stationnam":"JIANGTAI","count":1265415,"站点中":"将台","刷卡排":24,"lineids":"{12}","linenames":"{地铁14号线}","lat":39.969711248300001,"lng":116.483967507,"OBJECTID":220,"北京市2":229,"X":116.483967507,"Y":39.969711248000003,"LongNTL_20":36.794998168945312}},{"type":"Feature","id":220,"geometry":{"type":"Point","coordinates":[116.47129221500006,39.883680092000077]},"properties":{"FID":220,"stationid":230,"stationnam":"PINGLEYUAN","count":384711,"站点中":"平乐园","刷卡排":207,"lineids":"{12}","linenames":"{地铁14号线}","lat":39.883680092299997,"lng":116.47129221500001,"OBJECTID":221,"北京市2":230,"X":116.47129221500001,"Y":39.883680091999999,"LongNTL_20":42.784999847412109}},{"type":"Feature","id":221,"geometry":{"type":"Point","coordinates":[116.46128241300005,40.009019842000043]},"properties":{"FID":221,"stationid":231,"stationnam":"DONGHUQU","count":500945,"站点中":"东湖渠","刷卡排":173,"lineids":"{12}","linenames":"{地铁14号线}","lat":40.009019841700002,"lng":116.46128241300001,"OBJECTID":222,"北京市2":231,"X":116.46128241300001,"Y":40.009019842000001,"LongNTL_20":46.325000762939453}},{"type":"Feature","id":222,"geometry":{"type":"Point","coordinates":[116.46891371600009,39.942896231000077]},"properties":{"FID":222,"stationid":232,"stationnam":"ZAOYING","count":323272,"站点中":"枣营","刷卡排":228,"lineids":"{12}","linenames":"{地铁14号线}","lat":39.942896230599999,"lng":116.468913716,"OBJECTID":223,"北京市2":232,"X":116.468913716,"Y":39.942896230999999,"LongNTL_20":29.030000686645508}},{"type":"Feature","id":223,"geometry":{"type":"Point","coordinates":[116.479987284,39.957310975000041]},"properties":{"FID":223,"stationid":233,"stationnam":"DONGFENG BEIQIAO","count":330689,"站点中":"东风北桥","刷卡排":224,"lineids":"{12}","linenames":"{地铁14号线}","lat":39.9573109751,"lng":116.479987284,"OBJECTID":224,"北京市2":233,"X":116.479987284,"Y":39.957310974999999,"LongNTL_20":30.360000610351562}},{"type":"Feature","id":224,"geometry":{"type":"Point","coordinates":[116.46520824200002,39.990652602000068]},"properties":{"FID":224,"stationid":234,"stationnam":"FUTONG","count":560112,"站点中":"阜通","刷卡排":151,"lineids":"{12}","linenames":"{地铁14号线}","lat":39.990652601699999,"lng":116.465208242,"OBJECTID":225,"北京市2":234,"X":116.465208242,"Y":39.990652601999997,"LongNTL_20":39.715000152587891}},{"type":"Feature","id":225,"geometry":{"type":"Point","coordinates":[116.4607364100001,40.018918954000071]},"properties":{"FID":225,"stationid":235,"stationnam":"LAIGUANGYING","count":605337,"站点中":"来广营","刷卡排":137,"lineids":"{12}","linenames":"{地铁14号线}","lat":40.018918953799997,"lng":116.46073641,"OBJECTID":226,"北京市2":235,"X":116.46073641,"Y":40.018918954,"LongNTL_20":40.5}},{"type":"Feature","id":226,"geometry":{"type":"Point","coordinates":[116.47230578400001,39.93236236100006]},"properties":{"FID":226,"stationid":236,"stationnam":"CHAOYANG PARK","count":465207,"站点中":"朝阳公园","刷卡排":182,"lineids":"{12}","linenames":"{地铁14号线}","lat":39.932362361300001,"lng":116.472305784,"OBJECTID":227,"北京市2":236,"X":116.472305784,"Y":39.932362361000003,"LongNTL_20":30.260000228881836}},{"type":"Feature","id":227,"geometry":{"type":"Point","coordinates":[116.47581752300005,39.983383558000071]},"properties":{"FID":227,"stationid":237,"stationnam":"WANGJINGNAN","count":786086,"站点中":"望京南","刷卡排":91,"lineids":"{12}","linenames":"{地铁14号线}","lat":39.983383558500002,"lng":116.475817523,"OBJECTID":228,"北京市2":237,"X":116.475817523,"Y":39.983383558,"LongNTL_20":56.994998931884766}},{"type":"Feature","id":228,"geometry":{"type":"Point","coordinates":[116.47132603,39.873948513000073]},"properties":{"FID":228,"stationid":238,"stationnam":"BEIJING UNIVERSITY OF TECHNOLOGY WEST GATE","count":545785,"站点中":"北工大西门","刷卡排":155,"lineids":"{12}","linenames":"{地铁14号线}","lat":39.8739485133,"lng":116.47132603,"OBJECTID":229,"北京市2":238,"X":116.47132603,"Y":39.873948513000002,"LongNTL_20":35.154998779296875}},{"type":"Feature","id":229,"geometry":{"type":"Point","coordinates":[116.40451524600007,39.863740073000088]},"properties":{"FID":229,"stationid":239,"stationnam":"JINGTAI","count":289677,"站点中":"景泰","刷卡排":244,"lineids":"{12}","linenames":"{地铁14号线}","lat":39.863740073300001,"lng":116.404515246,"OBJECTID":230,"北京市2":239,"X":116.404515246,"Y":39.863740073000002,"LongNTL_20":33.544998168945312}},{"type":"Feature","id":230,"geometry":{"type":"Point","coordinates":[116.47209644400004,40.026003623000065]},"properties":{"FID":230,"stationid":240,"stationnam":"SHANGEZHUANG","count":133495,"站点中":"善各庄","刷卡排":294,"lineids":"{12}","linenames":"{地铁14号线}","lat":40.026003622899999,"lng":116.472096444,"OBJECTID":231,"北京市2":240,"X":116.472096444,"Y":40.026003623000001,"LongNTL_20":16.219999313354492}},{"type":"Feature","id":231,"geometry":{"type":"Point","coordinates":[116.43392182000002,39.864535808000085]},"properties":{"FID":231,"stationid":241,"stationnam":"FANGZHUANG","count":492811,"站点中":"方庄","刷卡排":175,"lineids":"{12}","linenames":"{地铁14号线}","lat":39.864535807700001,"lng":116.43392181999999,"OBJECTID":232,"北京市2":241,"X":116.43392181999999,"Y":39.864535807999999,"LongNTL_20":42.264999389648438}},{"type":"Feature","id":232,"geometry":{"type":"Point","coordinates":[116.4625467620001,39.997524396000074]},"properties":{"FID":232,"stationid":242,"stationnam":"WANGJING","count":799537,"站点中":"望京","刷卡排":84,"lineids":"{12,13}","linenames":"{地铁14号线,地铁15号线}","lat":39.997524395900001,"lng":116.462546762,"OBJECTID":233,"北京市2":242,"X":116.462546762,"Y":39.997524396000003,"LongNTL_20":44.439998626708984}},{"type":"Feature","id":233,"geometry":{"type":"Point","coordinates":[116.23435124800005,39.858161819000088]},"properties":{"FID":233,"stationid":243,"stationnam":"DAWAYAO","count":215161,"站点中":"大瓦窑","刷卡排":266,"lineids":"{12}","linenames":"{地铁14号线}","lat":39.858161819499998,"lng":116.234351248,"OBJECTID":234,"北京市2":243,"X":116.234351248,"Y":39.858161819000003,"LongNTL_20":34.659999847412109}},{"type":"Feature","id":234,"geometry":{"type":"Point","coordinates":[116.18078096200009,39.856762640000056]},"properties":{"FID":234,"stationid":244,"stationnam":"ZHANGGUOZHUANG","count":309444,"站点中":"张郭庄","刷卡排":234,"lineids":"{12}","linenames":"{地铁14号线}","lat":39.856762640299998,"lng":116.180780962,"OBJECTID":235,"北京市2":244,"X":116.180780962,"Y":39.856762639999999,"LongNTL_20":24.344999313354492}},{"type":"Feature","id":235,"geometry":{"type":"Point","coordinates":[116.2473141050001,39.863474269000051]},"properties":{"FID":235,"stationid":245,"stationnam":"GUOZHUANGZI","count":243104,"站点中":"郭庄子","刷卡排":256,"lineids":"{12}","linenames":"{地铁14号线}","lat":39.863474269199997,"lng":116.247314105,"OBJECTID":236,"北京市2":245,"X":116.247314105,"Y":39.863474269000001,"LongNTL_20":32.409999847412109}},{"type":"Feature","id":236,"geometry":{"type":"Point","coordinates":[116.19568600600007,39.860042948000057]},"properties":{"FID":236,"stationid":246,"stationnam":"GARDEN EXPO PARK","count":139400,"站点中":"园博园","刷卡排":291,"lineids":"{12}","linenames":"{地铁14号线}","lat":39.860042947700002,"lng":116.195686006,"OBJECTID":237,"北京市2":246,"X":116.195686006,"Y":39.860042948,"LongNTL_20":20.5}},{"type":"Feature","id":237,"geometry":{"type":"Point","coordinates":[116.26939051500005,39.864000044000079]},"properties":{"FID":237,"stationid":247,"stationnam":"DAJING","count":187190,"站点中":"大井","刷卡排":275,"lineids":"{12}","linenames":"{地铁14号线}","lat":39.864000043600001,"lng":116.269390515,"OBJECTID":238,"北京市2":247,"X":116.269390515,"Y":39.864000044000001,"LongNTL_20":46.395000457763672}},{"type":"Feature","id":238,"geometry":{"type":"Point","coordinates":[116.5493504530001,40.068944092000038]},"properties":{"FID":238,"stationid":248,"stationnam":"CHINA INTERNATIONAL EXHIBITION CENTER","count":359920,"站点中":"国展","刷卡排":214,"lineids":"{13}","linenames":"{地铁15号线}","lat":40.068944091600002,"lng":116.549350453,"OBJECTID":239,"北京市2":248,"X":116.549350453,"Y":40.068944092000002,"LongNTL_20":25.995000839233398}},{"type":"Feature","id":239,"geometry":{"type":"Point","coordinates":[116.49721680900007,40.032412383000064]},"properties":{"FID":239,"stationid":249,"stationnam":"MAQUANYING","count":439065,"站点中":"马泉营","刷卡排":190,"lineids":"{13}","linenames":"{地铁15号线}","lat":40.032412382799997,"lng":116.49721680899999,"OBJECTID":240,"北京市2":249,"X":116.49721680899999,"Y":40.032412383,"LongNTL_20":19.344999313354492}},{"type":"Feature","id":240,"geometry":{"type":"Point","coordinates":[116.6513256290001,40.128799579000088]},"properties":{"FID":240,"stationid":250,"stationnam":"SHUNYI","count":771129,"站点中":"顺义","刷卡排":93,"lineids":"{13}","linenames":"{地铁15号线}","lat":40.128799579000002,"lng":116.651325629,"OBJECTID":241,"北京市2":250,"X":116.651325629,"Y":40.128799579000002,"LongNTL_20":43.169998168945312}},{"type":"Feature","id":241,"geometry":{"type":"Point","coordinates":[116.678865481,40.131380304000061]},"properties":{"FID":241,"stationid":251,"stationnam":"FENGBO","count":659375,"站点中":"俸伯","刷卡排":114,"lineids":"{13}","linenames":"{地铁15号线}","lat":40.131380303500002,"lng":116.678865481,"OBJECTID":242,"北京市2":251,"X":116.678865481,"Y":40.131380303999997,"LongNTL_20":20.405000686645508}},{"type":"Feature","id":242,"geometry":{"type":"Point","coordinates":[116.34649867400003,39.999625339000033]},"properties":{"FID":242,"stationid":252,"stationnam":"LIUDAOKOU","count":540079,"站点中":"六道口","刷卡排":158,"lineids":"{13}","linenames":"{地铁15号线}","lat":39.999625339300003,"lng":116.346498674,"OBJECTID":243,"北京市2":252,"X":116.346498674,"Y":39.999625338999998,"LongNTL_20":42.419998168945312}},{"type":"Feature","id":243,"geometry":{"type":"Point","coordinates":[116.63551346600002,40.128881389000071]},"properties":{"FID":243,"stationid":253,"stationnam":"SHIMEN","count":503345,"站点中":"石门","刷卡排":172,"lineids":"{13}","linenames":"{地铁15号线}","lat":40.128881389100002,"lng":116.63551346600001,"OBJECTID":244,"北京市2":253,"X":116.63551346600001,"Y":40.128881389,"LongNTL_20":32.025001525878906}},{"type":"Feature","id":244,"geometry":{"type":"Point","coordinates":[116.40162579100001,40.001213069000073]},"properties":{"FID":244,"stationid":254,"stationnam":"ANLI LU","count":422777,"站点中":"安立路","刷卡排":195,"lineids":"{13}","linenames":"{地铁15号线}","lat":40.001213069199999,"lng":116.401625791,"OBJECTID":245,"北京市2":254,"X":116.401625791,"Y":40.001213069000002,"LongNTL_20":46.529998779296875}},{"type":"Feature","id":245,"geometry":{"type":"Point","coordinates":[116.4251345240001,39.999766655000087]},"properties":{"FID":245,"stationid":255,"stationnam":"GUANZHUANG","count":179074,"站点中":"关庄","刷卡排":277,"lineids":"{13}","linenames":"{地铁15号线}","lat":39.9997666553,"lng":116.425134524,"OBJECTID":246,"北京市2":255,"X":116.425134524,"Y":39.999766655000002,"LongNTL_20":35.009998321533203}},{"type":"Feature","id":246,"geometry":{"type":"Point","coordinates":[116.486615153,40.021141536000073]},"properties":{"FID":246,"stationid":256,"stationnam":"CUIGEZHUANG","count":162762,"站点中":"崔各庄","刷卡排":285,"lineids":"{13}","linenames":"{地铁15号线}","lat":40.021141536099996,"lng":116.486615153,"OBJECTID":247,"北京市2":256,"X":116.486615153,"Y":40.021141536000002,"LongNTL_20":15.819999694824219}},{"type":"Feature","id":247,"geometry":{"type":"Point","coordinates":[116.55182738600001,40.083366001000059]},"properties":{"FID":247,"stationid":257,"stationnam":"HUALIKAN","count":418237,"站点中":"花梨坎","刷卡排":198,"lineids":"{13}","linenames":"{地铁15号线}","lat":40.083366000799998,"lng":116.551827386,"OBJECTID":248,"北京市2":257,"X":116.551827386,"Y":40.083366001000002,"LongNTL_20":24.084999084472656}},{"type":"Feature","id":248,"geometry":{"type":"Point","coordinates":[116.604080071,40.127402038000071]},"properties":{"FID":248,"stationid":258,"stationnam":"NANFAXIN","count":318947,"站点中":"南法信","刷卡排":231,"lineids":"{13}","linenames":"{地铁15号线}","lat":40.127402037899998,"lng":116.604080071,"OBJECTID":249,"北京市2":258,"X":116.604080071,"Y":40.127402038,"LongNTL_20":23.315000534057617}},{"type":"Feature","id":249,"geometry":{"type":"Point","coordinates":[116.55835731100001,40.113022651000051]},"properties":{"FID":249,"stationid":259,"stationnam":"HOUSHAYU","count":600654,"站点中":"后沙峪","刷卡排":139,"lineids":"{13}","linenames":"{地铁15号线}","lat":40.113022651100003,"lng":116.55835731099999,"OBJECTID":250,"北京市2":259,"X":116.55835731099999,"Y":40.113022651000001,"LongNTL_20":30.370000839233398}},{"type":"Feature","id":250,"geometry":{"type":"Point","coordinates":[116.48069676900002,40.00205870800005]},"properties":{"FID":250,"stationid":260,"stationnam":"WANGJINGDONG","count":880701,"站点中":"望京东","刷卡排":68,"lineids":"{13}","linenames":"{地铁15号线}","lat":40.002058708,"lng":116.48069676900001,"OBJECTID":251,"北京市2":260,"X":116.48069676900001,"Y":40.002058708,"LongNTL_20":42.474998474121094}},